{
  "schemaVersion": 1,
  "updatedAt": "2026-07-11T23:31:58Z",
  "source": "rx.linkfanel.net/kiwisdr_com.js",
  "count": 823,
  "receivers": [
    {
      "id": "98f07bffccc3",
      "name": "80m Dipole | Chichester UK",
      "host": "g8ure.ddns.net",
      "port": 8075,
      "loc": "Chichester UK",
      "lat": 50.85,
      "lon": -0.66,
      "grid": "IO90QU",
      "users": 6,
      "usersMax": 8,
      "snr": 43,
      "offline": false,
      "antenna": "80m Dipole"
    },
    {
      "id": "f82e0c015d32",
      "name": "80m Dipole | Chichester UK",
      "host": "g8ure.ddns.net",
      "port": 8079,
      "loc": "Chichester UK",
      "lat": 50.846102,
      "lon": -0.661851,
      "grid": "IO90qu",
      "users": 4,
      "usersMax": 8,
      "snr": 43,
      "offline": false,
      "antenna": "80m Dipole"
    },
    {
      "id": "f82e0c01925d",
      "name": "80m dipole | Chichester UK",
      "host": "g8ure.ddns.net",
      "port": 8071,
      "loc": "Chichester UK",
      "lat": 50.8463,
      "lon": -0.661731,
      "grid": "IO90QU",
      "users": 4,
      "usersMax": 8,
      "snr": 44,
      "offline": false,
      "antenna": "80m dipole"
    },
    {
      "id": "f82e0c01696b",
      "name": "80m dipole | Chichester UK",
      "host": "g8ure.ddns.net",
      "port": 8078,
      "loc": "Chichester UK",
      "lat": 50.846315,
      "lon": -0.661952,
      "grid": "IO90QU",
      "users": 3,
      "usersMax": 8,
      "snr": 43,
      "offline": false,
      "antenna": "80m Dipole"
    },
    {
      "id": "0804b4672984",
      "name": "- 0-30MHz HF SDR PLONSK- 161OS344 | 2.5m+0.8m Two active copper tube loop antennas 4m&6m/AGL **Reception above 10 MHz will be restored once the fault has been repaired.** | 🇵🇱 | POLAND",
      "host": "plonsk.proxy.kiwisdr.com",
      "port": 80,
      "loc": "🇵🇱 | POLAND",
      "lat": 52.615443,
      "lon": 20.359974,
      "grid": "KO02eo",
      "users": 1,
      "usersMax": 4,
      "snr": 44,
      "offline": false,
      "antenna": "**Reception above 10 MHz will be restored once the fault has bee"
    },
    {
      "id": "f82e0c01a226",
      "name": "🇳🇱 ► PB8W ◀ 🇳🇱 ► Willem ◀ 🇳🇱 ► PAHGOR active loop sn:001 ◀ 🇳🇱 | Assen | Netherlands",
      "host": "pb8w.proxy.kiwisdr.com",
      "port": 80,
      "loc": "Assen | Netherlands",
      "lat": 52.98,
      "lon": 6.49,
      "grid": "JO32fx",
      "users": 1,
      "usersMax": 8,
      "snr": 43,
      "offline": false,
      "antenna": "Active Loop antenna PAHGOR (serial nr: 001) built by <b>► PA0EBC"
    },
    {
      "id": "147f0fdf7ad6",
      "name": "80m Dipole | Chichester UK",
      "host": "g8ure.ddns.net",
      "port": 8077,
      "loc": "Chichester UK",
      "lat": 50.85,
      "lon": -0.66,
      "grid": "IO90QU",
      "users": 4,
      "usersMax": 8,
      "snr": 43,
      "offline": false,
      "antenna": "80m Dipole"
    },
    {
      "id": "0804b475c0bb",
      "name": "OH1CT - 160m dipole - Loppi, Finland",
      "host": "oh1ct.sytes.net",
      "port": 8073,
      "loc": "Loppi, Finland",
      "lat": 60.673316,
      "lon": 24.474856,
      "grid": "kp20fq",
      "users": 3,
      "usersMax": 8,
      "snr": 43,
      "offline": false,
      "antenna": "160m dipole"
    },
    {
      "id": "b827eb7e0f40",
      "name": "Wessex Flydog - G8JNJ - 0-62MHz - South West UK",
      "host": "wessex.hopto.org",
      "port": 8075,
      "loc": "South West England, UK",
      "lat": 50.808848,
      "lon": -2.477226,
      "grid": null,
      "users": 2,
      "usersMax": 4,
      "snr": 47,
      "offline": false,
      "antenna": "Terminated Delta Loop 20m sides"
    },
    {
      "id": "1442fc0f7d6d",
      "name": "80m dipole | Chichester UK",
      "host": "g8ure.ddns.net",
      "port": 8074,
      "loc": "Chichester UK",
      "lat": 50.846202,
      "lon": -0.661879,
      "grid": "IO90QU",
      "users": 6,
      "usersMax": 8,
      "snr": 41,
      "offline": false,
      "antenna": "80m dipole"
    },
    {
      "id": "0804b48290e2",
      "name": "AutreRadioAutreCulture 2 | TREMOLAT (24), FRANCE",
      "host": "sdr.autreradioautreculture.com",
      "port": 8074,
      "loc": "TREMOLAT (24), FRANCE",
      "lat": 44.869416,
      "lon": 0.835143,
      "grid": "JN04ku",
      "users": 2,
      "usersMax": 6,
      "snr": 38,
      "offline": false,
      "antenna": "Vertical pylon isolated 11 meters"
    },
    {
      "id": "e415f6f748cb",
      "name": "Ireland North West 3",
      "host": "irelandnorthwest3.proxy.kiwisdr.com",
      "port": 80,
      "loc": "Ireland",
      "lat": 54.229144,
      "lon": -9.312494,
      "grid": "IO53mw",
      "users": 1,
      "usersMax": 8,
      "snr": 40,
      "offline": false,
      "antenna": "Dipole"
    },
    {
      "id": "883f4a9a8729",
      "name": "OH6HPS SDR, 160m horizontal loop, Muurame, Finland",
      "host": "oh6hps.ddns.net",
      "port": 8073,
      "loc": "Muurame, Finland",
      "lat": 62.149054,
      "lon": 25.693178,
      "grid": "KP22ud",
      "users": 1,
      "usersMax": 3,
      "snr": 39,
      "offline": false,
      "antenna": "160m horizontal loop"
    },
    {
      "id": "9889248a0434",
      "name": "AutreRadioAutreCulture 1 | TREMOLAT (24), FRANCE",
      "host": "sdr.autreradioautreculture.com",
      "port": 8073,
      "loc": "TREMOLAT (24), FRANCE",
      "lat": 44.869416,
      "lon": 0.835143,
      "grid": "JN04ku",
      "users": 0,
      "usersMax": 6,
      "snr": 39,
      "offline": false,
      "antenna": "Mini-Whip dual FET 3,50m"
    },
    {
      "id": "985dad4533a3",
      "name": "KiwiSDR with Dipole | Szekesfehervar, Hungary",
      "host": "kiwisdr.dfm.hu",
      "port": 80,
      "loc": "Szekesfehervar/Maroshegy, Hungary",
      "lat": 47.151664,
      "lon": 18.390449,
      "grid": "JN97ed",
      "users": 1,
      "usersMax": 8,
      "snr": 39,
      "offline": false,
      "antenna": "Dipole (54m/177ft long, 5m/16ft AGL) with 1:1 balun"
    },
    {
      "id": "ec24b8cfd0db",
      "name": "Wessex KiWi V1 - G8JNJ - 0-30MHz - South West UK",
      "host": "wessex.zapto.org",
      "port": 8073,
      "loc": "South West England, UK",
      "lat": 50.74,
      "lon": -2.63,
      "grid": "IO80qr",
      "users": 1,
      "usersMax": 8,
      "snr": 39,
      "offline": false,
      "antenna": "Switched"
    },
    {
      "id": "647060e3ae1b",
      "name": "80m dipole | Chichester UK",
      "host": "g8ure.ddns.net",
      "port": 8072,
      "loc": "Chichester UK",
      "lat": 50.846198,
      "lon": -0.661326,
      "grid": "IO90QU",
      "users": 2,
      "usersMax": 8,
      "snr": 38,
      "offline": false,
      "antenna": "80m dipole"
    },
    {
      "id": "fc6947b8273d",
      "name": "0-30 MHz SDR, SK6AG | Borås",
      "host": "sk6ag2.ddns.net",
      "port": 8072,
      "loc": "Borås",
      "lat": 57.72,
      "lon": 13.07,
      "grid": "JO67mr",
      "users": 0,
      "usersMax": 8,
      "snr": 38,
      "offline": false,
      "antenna": "Dipol"
    },
    {
      "id": "04a316ee0fa3",
      "name": "1.7-30 MHz SDR, HG5ACZ, Hungary, JN87pq, FD4 windom",
      "host": "hg5acz.ddns.net",
      "port": 8073,
      "loc": "Bősárkány, Hungary",
      "lat": 47.69104,
      "lon": 17.253259,
      "grid": "JN87pq",
      "users": 2,
      "usersMax": 8,
      "snr": 37,
      "offline": false,
      "antenna": "Fritzel FD4 windom (80 - 10 m)"
    },
    {
      "id": "0804b482ac3f",
      "name": "🗲 30 KHz-30 MHz 🗲 | Sobikow, Poland",
      "host": "jm55.proxy.kiwisdr.com",
      "port": 80,
      "loc": "Sobikow, Poland",
      "lat": 51.94,
      "lon": 21.18,
      "grid": "KO01nx",
      "users": 0,
      "usersMax": 4,
      "snr": 37,
      "offline": false,
      "antenna": "dipole"
    },
    {
      "id": "f82e0c015720",
      "name": "EC2AQW 0-30 MHz SDR | ARANO (Navarra) Spain",
      "host": "21959.proxy.kiwisdr.com",
      "port": 80,
      "loc": "ARANO (Navarra) Spain",
      "lat": 43.2,
      "lon": -1.9,
      "grid": "IN93BE",
      "users": 1,
      "usersMax": 3,
      "snr": 36,
      "offline": false,
      "antenna": "EndFed 40m long"
    },
    {
      "id": "0035ff9d049a",
      "name": "Beverage - North | Chichester UK",
      "host": "g8ure.ddns.net",
      "port": 8073,
      "loc": "Chichester UK",
      "lat": 50.846274,
      "lon": -0.661835,
      "grid": "IO90QU",
      "users": 8,
      "usersMax": 8,
      "snr": 42,
      "offline": false,
      "antenna": "Beverage - North"
    },
    {
      "id": "0804b4828b3f",
      "name": "DF3LZ, KiwiSDR2 | Hamburg, Germany",
      "host": "85.183.11.108",
      "port": 8074,
      "loc": "Hamburg, Germany",
      "lat": 53.452118,
      "lon": 10.221034,
      "grid": "JO53ck",
      "users": 1,
      "usersMax": 2,
      "snr": 36,
      "offline": false,
      "antenna": "33m T2FD"
    },
    {
      "id": "40bd322ec32b",
      "name": "linkz - kiwi 2 | Isere, France",
      "host": "linkz.ddns.net",
      "port": 8074,
      "loc": "Isere, France",
      "lat": 45.402778,
      "lon": 5.277473,
      "grid": "JN25pj",
      "users": 0,
      "usersMax": 8,
      "snr": 39,
      "offline": false,
      "antenna": "Horizontal 80m skywire loop (SV1AFN 4-way Splitter/Combiner > SV"
    },
    {
      "id": "58a15ffbbef9",
      "name": "Ireland North West 4",
      "host": "22424.proxy.kiwisdr.com",
      "port": 80,
      "loc": "Ireland",
      "lat": 54.229144,
      "lon": -9.312494,
      "grid": "IO53mw",
      "users": 1,
      "usersMax": 8,
      "snr": 38,
      "offline": false,
      "antenna": "Dipole"
    },
    {
      "id": "40bd32e4da2a",
      "name": "Ireland North West.....Ireland",
      "host": "irelandnorthwest.proxy.kiwisdr.com",
      "port": 80,
      "loc": "Ireland",
      "lat": 54.229144,
      "lon": -9.312494,
      "grid": null,
      "users": 0,
      "usersMax": 3,
      "snr": 36,
      "offline": false,
      "antenna": "Dipole"
    },
    {
      "id": "9006f2602c6d",
      "name": "Web-SDR Friesland MW | Fryslan, the Netherlands",
      "host": "rffryslan.vosrx.nl",
      "port": 8073,
      "loc": "Fryslan, the Netherlands",
      "lat": 53.195481,
      "lon": 5.987106,
      "grid": "JO23XE",
      "users": 0,
      "usersMax": 8,
      "snr": 38,
      "offline": false,
      "antenna": "Inverted-v dipool, 2x45 m"
    },
    {
      "id": "648cbb78f7c3",
      "name": "Wessex KiWi V2 - G8JNJ - 0-30MHz - South West UK",
      "host": "wessex.zapto.org",
      "port": 8074,
      "loc": "Wessex - KiwiSDR - G8JNJ - South West UK",
      "lat": 50.74,
      "lon": -2.64,
      "grid": "IO80qr",
      "users": 0,
      "usersMax": 8,
      "snr": 39,
      "offline": false,
      "antenna": "(same as Wessex KiWi V1)"
    },
    {
      "id": "6433db1c02dc",
      "name": "0-30 MHz Funkamateure e.V. | Baunatal, Germany",
      "host": "178.63.122.223",
      "port": 8073,
      "loc": "Baunatal, Germany",
      "lat": 51.0755,
      "lon": 9.6155,
      "grid": "JO41tb",
      "users": 0,
      "usersMax": 1,
      "snr": 35,
      "offline": false,
      "antenna": "T2FD"
    },
    {
      "id": "40bd32e4d511",
      "name": "SUOMEN DX-LIITTO (SDXL-PAR) • FINNISH DX-ASSOCIATION (FDXA) • 80M HORISONTAL LOOP • PARAINEN, SOUTH-WEST FINLAND 🇫🇮",
      "host": "oh1rj.proxy.kiwisdr.com",
      "port": 80,
      "loc": "Parainen, Finland",
      "lat": 60.338667,
      "lon": 22.364648,
      "grid": null,
      "users": 2,
      "usersMax": 4,
      "snr": 38,
      "offline": false,
      "antenna": "80m horisontal loop"
    },
    {
      "id": "b4ac9dfb7183",
      "name": "F5MMX 2x15m doublet 7 AGL | IN95oc | FRANCE",
      "host": "f5mmx.proxy.kiwisdr.com",
      "port": 80,
      "loc": "IN95oc | FRANCE",
      "lat": 45.121146,
      "lon": -0.806472,
      "grid": "IN95oc",
      "users": 3,
      "usersMax": 8,
      "snr": 36,
      "offline": false,
      "antenna": "2x15m doublet 7m AGL"
    },
    {
      "id": "38d2697cbb73",
      "name": "0-30 MHz SDR Clubstation DL0HC | Hattingen NRW, Germany",
      "host": "kiwi.770net.de",
      "port": 8073,
      "loc": "Hattingen NRW, Germany",
      "lat": 51.376803,
      "lon": 7.218289,
      "grid": "JO31OJ",
      "users": 2,
      "usersMax": 8,
      "snr": 37,
      "offline": false,
      "antenna": "PA0RDT MiniWhip (Sorry, high QRM on Low Bands!)"
    },
    {
      "id": "f82e0c016920",
      "name": "0-30 MHz SDR TreDXK #3 | Tampere, Finland",
      "host": "tredxk.no-ip.org",
      "port": 8075,
      "loc": "Tampere, Finland",
      "lat": 61.525062,
      "lon": 23.889774,
      "grid": "KP11wm",
      "users": 2,
      "usersMax": 8,
      "snr": 33,
      "offline": false,
      "antenna": "Active loop east-west 9v1vv amplifier"
    },
    {
      "id": "b4ac9dfaafd0",
      "name": "HB9BMR 0...30 MHz | Gurmels, Switzerland",
      "host": "21115.proxy.kiwisdr.com",
      "port": 80,
      "loc": "Gurmels, Switzerland",
      "lat": 46.892387,
      "lon": 7.163138,
      "grid": "JN36nv",
      "users": 0,
      "usersMax": 8,
      "snr": 38,
      "offline": false,
      "antenna": "https://active-antenna.eu/ 2x1meter"
    },
    {
      "id": "0804b482f40f",
      "name": "0-30 MHz SDR, OZ1AEF, Denmark",
      "host": "87.104.90.69",
      "port": 8073,
      "loc": "Skanderborg, Denmark",
      "lat": 56.08,
      "lon": 9.99,
      "grid": "JO46xb",
      "users": 1,
      "usersMax": 8,
      "snr": 37,
      "offline": false,
      "antenna": "Just NOW 30 m Long Wire, 10 meter above ground"
    },
    {
      "id": "c4f312b9faaa",
      "name": "G3SDR, 0-32 MHz Kiwi 8074. Weston-super-Mare. Parallel dipoles for 160m, 80m, 60m & 40m. 5/8th Vertical for 28MHz. Wellbrook Loop for VLF & MW 🛰",
      "host": "g3sdr.com",
      "port": 8074,
      "loc": "Weston-super-Mare, United Kingdom",
      "lat": 51.317266,
      "lon": -2.950479,
      "grid": "IO81MI",
      "users": 1,
      "usersMax": 8,
      "snr": 38,
      "offline": false,
      "antenna": "Parallel dipoles for 160m, 80m, 60m & 40m. 5/8th Vertical with m"
    },
    {
      "id": "883f4aab9829",
      "name": "DF3LZ, KiwiSDR1 | Hamburg, Germany, 33m T2FD",
      "host": "85.183.11.108",
      "port": 8073,
      "loc": "Hamburg, Germany, 33m T2FD",
      "lat": 53.452118,
      "lon": 10.221034,
      "grid": "JO53CK",
      "users": 5,
      "usersMax": 8,
      "snr": 33,
      "offline": false,
      "antenna": "T2FD"
    },
    {
      "id": "0804b482a77d",
      "name": "Radiohill, Alberschwende, Austria, 995m asl, 80m long vertical loop",
      "host": "kiwi.oe9.oevsv.at",
      "port": 8073,
      "loc": "Alberschwende, Austria",
      "lat": 47.442516,
      "lon": 9.843918,
      "grid": "JN47wk",
      "users": 6,
      "usersMax": 8,
      "snr": 35,
      "offline": false,
      "antenna": "80m long vertical loop"
    },
    {
      "id": "6433db174cbe",
      "name": "OH5AE OH5R SDR | Elimäki, Finland",
      "host": "oh5ae.dyndns.org",
      "port": 8073,
      "loc": "Elimäki, Finland",
      "lat": 60.72,
      "lon": 26.41,
      "grid": "KP30",
      "users": 6,
      "usersMax": 7,
      "snr": 34,
      "offline": false,
      "antenna": "80m Horizontal Loop"
    },
    {
      "id": "c4f312a0a6ef",
      "name": "G3SDR, 0-32 MHz Kiwi 8076. Weston-super-Mare. Parallel dipoles for 160m, 80m, 60m & 40m. 5/8th Vertical for 28MHz. Wellbrook Loop for VLF & MW 🖫",
      "host": "g3sdr.com",
      "port": 8076,
      "loc": "Weston-super-Mare, United Kingdom",
      "lat": 51.317266,
      "lon": -2.950479,
      "grid": "IO81MI",
      "users": 1,
      "usersMax": 8,
      "snr": 38,
      "offline": false,
      "antenna": "Parallel dipoles for 160m, 80m, 60m & 40m. 5/8th Vertical with m"
    },
    {
      "id": "38d2697cbb0a",
      "name": "0-30 MHz SDR by OZ1BFM | Vejby, Denmark",
      "host": "oz1bfm.proxy.kiwisdr.com",
      "port": 80,
      "loc": "Vejby, Denmark",
      "lat": 56.08,
      "lon": 12.16,
      "grid": "JO66bb",
      "users": 1,
      "usersMax": 4,
      "snr": 33,
      "offline": false,
      "antenna": "OCF dipole shared with my HF radio"
    },
    {
      "id": "38d2697cdfc6",
      "name": "0-30 MHz SDR, HB9CWK Heimiswil, Switzerland",
      "host": "hb9cwk.internet-box.ch",
      "port": 8073,
      "loc": "Heimiswil, Switzerland",
      "lat": 47.057209,
      "lon": 7.648012,
      "grid": "JN37TB",
      "users": 2,
      "usersMax": 8,
      "snr": 35,
      "offline": false,
      "antenna": "Longwire"
    },
    {
      "id": "c4f312726fdf",
      "name": "0-30 MHz SDR, OE3AKB,Oberwoelbling, AUSTRIA",
      "host": "oe3akb.ddns.net",
      "port": 8073,
      "loc": "Lower Austria / Austria",
      "lat": 48.32,
      "lon": 15.58,
      "grid": "JN78sh",
      "users": 1,
      "usersMax": 8,
      "snr": 39,
      "offline": false,
      "antenna": "Cross-Loop and Activ Antenna Amplifier by LZ1AQ Model AAA-1C"
    },
    {
      "id": "40bd32c8d849",
      "name": "DE2HJW SDR JO53CN DL nr Hamburg",
      "host": "kiwijo53cn.ddnss.org",
      "port": 8073,
      "loc": "Locator JO53CN",
      "lat": 53.57,
      "lon": 10.23,
      "grid": "JO53cn",
      "users": 0,
      "usersMax": 2,
      "snr": 36,
      "offline": false,
      "antenna": "Different antennas and HEROS Preselector in extension \\\"shack_co"
    },
    {
      "id": "f82e0c109abc",
      "name": "GM4RDX | N/E SCOTLAND",
      "host": "gm4rdx.proxy.kiwisdr.com",
      "port": 80,
      "loc": "N/E SCOTLAND",
      "lat": 57.445936,
      "lon": -1.956759,
      "grid": "IO97AK",
      "users": 2,
      "usersMax": 8,
      "snr": 36,
      "offline": false,
      "antenna": "320meters (1050feet long) skyloop Please Note! antenna maybe dis"
    },
    {
      "id": "883f4a99ff09",
      "name": "G3SDR, 0-32 MHz Kiwi 8075. Weston-super-Mare. Parallel dipoles for 160m, 80m, 60m & 40m. 5/8th Vertical for 28MHz. Wellbrook Loop for VLF & MW 🖳",
      "host": "g3sdr.com",
      "port": 8075,
      "loc": "Weston-super-Mare, United Kingdom",
      "lat": 51.317266,
      "lon": -2.950479,
      "grid": "IO81MI",
      "users": 1,
      "usersMax": 8,
      "snr": 37,
      "offline": false,
      "antenna": "Parallel dipoles for 160m, 80m, 60m & 40m. 5/8th Vertical with m"
    },
    {
      "id": "e062346fdfa1",
      "name": "DF0TWN KiwiSDR 30 Mhz SDR | Bad Bentheim , Germany",
      "host": "df0twn.dnsuser.de",
      "port": 8073,
      "loc": "Bad Bentheim , Germany",
      "lat": 52.302252,
      "lon": 7.176263,
      "grid": "JO32oh",
      "users": 0,
      "usersMax": 8,
      "snr": 35,
      "offline": false,
      "antenna": "Gap Vertical, 14 m high"
    },
    {
      "id": "f82e0c01693e",
      "name": "DL8LAS-2 Trent 0-30 MHz SDR",
      "host": "21952.proxy.kiwisdr.com",
      "port": 80,
      "loc": "Trent JO54EF, Germany",
      "lat": 54.205979,
      "lon": 10.364482,
      "grid": "JO54ee",
      "users": 2,
      "usersMax": 8,
      "snr": 37,
      "offline": false,
      "antenna": "HIZ 7m vertical"
    },
    {
      "id": "988924899fea",
      "name": "SDR Esbjerg - Denmark - 0-30 MHz",
      "host": "21086.proxy.kiwisdr.com",
      "port": 80,
      "loc": "Esbjerg, Denmark",
      "lat": 55.500759,
      "lon": 8.415696,
      "grid": "JO65gq",
      "users": 0,
      "usersMax": 3,
      "snr": 35,
      "offline": false,
      "antenna": "Longwire 20 meters north-south"
    },
    {
      "id": "04a316df1bca",
      "name": "linkz - kiwi 1 | Isere, France",
      "host": "linkz.ddns.net",
      "port": 8073,
      "loc": "Isere, France",
      "lat": 45.402767,
      "lon": 5.277375,
      "grid": "JN25pj",
      "users": 2,
      "usersMax": 8,
      "snr": 37,
      "offline": false,
      "antenna": "LZ1AQ AAA-1D"
    },
    {
      "id": "f4e11ea938c7",
      "name": "0-30 MHz SDR, SK2HG, Siknas Fortress, Sweden",
      "host": "kiwisdr.sk2hg.se",
      "port": 8073,
      "loc": "Siknas Sweden",
      "lat": 65.868181,
      "lon": 22.643595,
      "grid": "KP15HU",
      "users": 1,
      "usersMax": 8,
      "snr": 33,
      "offline": false,
      "antenna": "Miltary type wideband dipole antenna (Hängmatta)"
    },
    {
      "id": "0804b475cc16",
      "name": "EI6IZ SDR #1 KiwiSDR V2 | Castlebar, Co Mayo, Ireland",
      "host": "kiwi.minish.org",
      "port": 8073,
      "loc": "Castlebar, Co Mayo, Ireland",
      "lat": 53.84,
      "lon": -9.37,
      "grid": "IO53hu",
      "users": 2,
      "usersMax": 8,
      "snr": 35,
      "offline": false,
      "antenna": "Active loop"
    },
    {
      "id": "0035ff994d4c",
      "name": "0-30 MHz SDR, DX.CZ | Marianske Lazne, Czech",
      "host": "109.164.114.15",
      "port": 8073,
      "loc": "Marianske Lazne, Czech",
      "lat": 49.93,
      "lon": 12.56,
      "grid": "JN69GW",
      "users": 1,
      "usersMax": 3,
      "snr": 36,
      "offline": false,
      "antenna": "Ala Wellbrook, active-antenna.eu, 300m Beverage USA/Asie, Invert"
    },
    {
      "id": "0804b4827dd4",
      "name": "linkz - kiwi 3 | Isere, France",
      "host": "linkz.ddns.net",
      "port": 8075,
      "loc": "Isere, France",
      "lat": 45.402778,
      "lon": 5.277473,
      "grid": "JN25pj",
      "users": 0,
      "usersMax": 8,
      "snr": 35,
      "offline": false,
      "antenna": "Cushcraft R8 vertical"
    },
    {
      "id": "0035ff9cf36c",
      "name": "KiwiSDR Maakeski • Suomen DX-Liitto (SDXL) • Finnish DX-Association (FDXA) • PADASJOKI, FINLAND🇫🇮",
      "host": "maakeski.psokotka.com",
      "port": 8076,
      "loc": "Padasjoki, Finland 🇫🇮",
      "lat": 61.29188,
      "lon": 25.313101,
      "grid": "KP21qg",
      "users": 1,
      "usersMax": 8,
      "snr": 39,
      "offline": false,
      "antenna": "Super KAZ 220° (experimental)"
    },
    {
      "id": "c4f312a093ed",
      "name": "0-30 MHz SDR, G3XOU | Tavistock, Devon, UK",
      "host": "82.69.125.202",
      "port": 8073,
      "loc": "Tavistock, Devon, UK",
      "lat": 50.53,
      "lon": -4.13,
      "grid": "IO70WM",
      "users": 1,
      "usersMax": 3,
      "snr": 34,
      "offline": false,
      "antenna": "204 foot Doublet"
    },
    {
      "id": "985dad428962",
      "name": "EI0CF Finbar O'Connor | Malin, County Donegal, Ireland",
      "host": "malinheadkiwi.hopto.org",
      "port": 8073,
      "loc": "Malin, County Donegal, Ireland",
      "lat": 55.289837,
      "lon": -7.262482,
      "grid": "IO65IH",
      "users": 1,
      "usersMax": 8,
      "snr": 33,
      "offline": false,
      "antenna": "L antenna with two paralell 44m top hat wires between two 20m ma"
    },
    {
      "id": "78047338d12c",
      "name": "G3SDR, 0-32 MHz Kiwi 8077. Weston-super-Mare. Parallel dipoles for 160m, 80m, 60m & 40m. 5/8th Vertical for 28MHz. Wellbrook Loop for VLF & MW 🕬",
      "host": "g3sdr.com",
      "port": 8077,
      "loc": "Weston-super-Mare, United Kingdom",
      "lat": 51.317266,
      "lon": -2.950479,
      "grid": "IO81MI",
      "users": 1,
      "usersMax": 8,
      "snr": 35,
      "offline": false,
      "antenna": "Parallel dipoles for 160m, 80m, 60m & 40m. 5/8th Vertical with m"
    },
    {
      "id": "c4f312b9fad7",
      "name": "G3SDR, 0-32 MHz Kiwi 8073. Weston-super-Mare. Parallel dipoles for 160m, 80m, 60m & 40m. 5/8th Vertical for 28MHz. Wellbrook Loop for VLF & MW 🕾",
      "host": "g3sdr.com",
      "port": 8073,
      "loc": "Weston-super-Mare, United Kingdom",
      "lat": 51.317266,
      "lon": -2.950479,
      "grid": "IO81MI",
      "users": 2,
      "usersMax": 8,
      "snr": 36,
      "offline": false,
      "antenna": "Parallel dipoles for 160m, 80m, 60m & 40m. 5/8th Vertical with m"
    },
    {
      "id": "04a316fcb3ea",
      "name": "0-30 MHz KiwiSDR #2, DC9FD, Fulda, Germany, ALA1530LN",
      "host": "ko9xjv5u227qbxwa.myfritz.net",
      "port": 8073,
      "loc": "Fulda, Germany",
      "lat": 50.543453,
      "lon": 9.464983,
      "grid": "JO40rn",
      "users": 0,
      "usersMax": 3,
      "snr": 34,
      "offline": false,
      "antenna": "ALA1530LN, E<->W direction"
    },
    {
      "id": "985dad48eca0",
      "name": "0-30 MHz / Remote SP / SDR / Poland | Jędrzejów",
      "host": "sp7wk.proxy.kiwisdr.com",
      "port": 80,
      "loc": "Jędrzejów",
      "lat": 50.639426,
      "lon": 20.304664,
      "grid": "KO00",
      "users": 1,
      "usersMax": 8,
      "snr": 32,
      "offline": false,
      "antenna": "Delta SP7LA"
    },
    {
      "id": "0035ff9b781c",
      "name": "0-30 MHz SDR | 🇦🇹🇦🇹🇦🇹🇦🇹 URL: http://rx1.radio101.de 🇦🇹🇦🇹🇦🇹🇦🇹 Kufstein / Niederndorferberg (950m a.s.l.), Austria",
      "host": "178.191.74.7",
      "port": 8073,
      "loc": "🇦🇹🇦🇹🇦🇹🇦🇹 URL: http://rx1.radio101.de 🇦🇹🇦🇹🇦🇹🇦🇹 Kufstein / Niederndorferberg (950m a.s.l.), Austria",
      "lat": 47.67183,
      "lon": 12.234051,
      "grid": "JN67CQ",
      "users": 0,
      "usersMax": 4,
      "snr": 31,
      "offline": false,
      "antenna": "wire antenna 6m above ground, 950m a.s.l."
    },
    {
      "id": "884aeaf5859a",
      "name": "0-30 MHz SDR #2, SM0KOT, Sweden | Mala, Northern Sweden.",
      "host": "aspliden.kostet.se",
      "port": 8074,
      "loc": "Mala, Northern Sweden.",
      "lat": 65.08,
      "lon": 18.63,
      "grid": "JP95hb",
      "users": 2,
      "usersMax": 3,
      "snr": 32,
      "offline": false,
      "antenna": null
    },
    {
      "id": "883f4a9854ac",
      "name": "0-30 MHz SDR | Pommier de beaurepaire (38) France",
      "host": "f6abj-kiwihf.ddns.net",
      "port": 8074,
      "loc": "Pommier de beaurepaire (38) France",
      "lat": 45.384028,
      "lon": 5.093461,
      "grid": "JN25nj",
      "users": 0,
      "usersMax": 8,
      "snr": 30,
      "offline": false,
      "antenna": "80m dipole 12 m above ground"
    },
    {
      "id": "b4ac9dfb632b",
      "name": "KiwiSDR2 - F6FSB - 0-30 MHz SDR | Plougastel Daoulas, France",
      "host": "21051.proxy.kiwisdr.com",
      "port": 80,
      "loc": "Plougastel Daoulas, France",
      "lat": 48.38,
      "lon": -4.37,
      "grid": "IN78tj",
      "users": 0,
      "usersMax": 7,
      "snr": 33,
      "offline": false,
      "antenna": "Home made W3DZZ (8m AGL)"
    },
    {
      "id": "0035ff9cb4a2",
      "name": "G3SDH. 0-30 MHz KiwiSDR. 80M Doublet at 9 Metres AGL | Near Bristol, UK",
      "host": "g3sdh.com",
      "port": 8053,
      "loc": "Near Bristol, UK",
      "lat": 51.31,
      "lon": -2.65,
      "grid": "IO81QH",
      "users": 0,
      "usersMax": 8,
      "snr": 34,
      "offline": false,
      "antenna": "80M Doublet at 9M AGL"
    },
    {
      "id": "40bd322e9bbf",
      "name": "0-30 MHz SDR, Daniele IK2WBG, Como (CO) ITALY",
      "host": "ik2wbg-proxy.proxy.kiwisdr.com",
      "port": 80,
      "loc": "Como, Italy",
      "lat": 45.801388,
      "lon": 9.127193,
      "grid": null,
      "users": 1,
      "usersMax": 4,
      "snr": 35,
      "offline": false,
      "antenna": "~40m wire"
    },
    {
      "id": "147f0fdf7584",
      "name": "OL1F 1-30 MHz SDR, 268m ASL | Velvary, Czech Republic",
      "host": "21684.proxy.kiwisdr.com",
      "port": 80,
      "loc": "Velvary, Czech Republic",
      "lat": 50.27,
      "lon": 14.25,
      "grid": "JO70dg",
      "users": 1,
      "usersMax": 2,
      "snr": 31,
      "offline": false,
      "antenna": "82m Delta Loop"
    },
    {
      "id": "b83df630b217",
      "name": "Björnholmen KIWi WebSDR | Stockholm archipelago",
      "host": "22639.proxy.kiwisdr.com",
      "port": 80,
      "loc": "Stockholm archipelago",
      "lat": 59.34,
      "lon": 18.62,
      "grid": "JO99HI",
      "users": 3,
      "usersMax": 8,
      "snr": 34,
      "offline": false,
      "antenna": "Carolina Windom"
    },
    {
      "id": "f82e0c0fbc3a",
      "name": "0-30 MHz SDR | Kloosterhaar, Overijssel, The Netherlands",
      "host": "62.45.193.175",
      "port": 8073,
      "loc": "Kloosterhaar, Overijssel, The Netherlands",
      "lat": 52.4958,
      "lon": 6.672051,
      "grid": "JO32im",
      "users": 0,
      "usersMax": 3,
      "snr": 35,
      "offline": false,
      "antenna": "LZ1AQ Active loop NW-ZO"
    },
    {
      "id": "20d7787d2636",
      "name": "0-30 MHz SDR | (51.821407, 7.918051)",
      "host": "dk0ep.proxy.kiwisdr.com",
      "port": 80,
      "loc": "(51.821407, 7.918051)",
      "lat": 51.821407,
      "lon": 7.918051,
      "grid": "JO31xt",
      "users": 0,
      "usersMax": 3,
      "snr": 33,
      "offline": false,
      "antenna": "Dipole 2x25m"
    },
    {
      "id": "883f4aab7be8",
      "name": "🟢⚪🔴 IZ6198SWL Radio Station 🟢⚪🔴 Alvito Central Italy | G5RV Full Size Antenna 🛰️ | Solar-Powered ☀️📡🇮🇹",
      "host": "iz6198swl.proxy.kiwisdr.com",
      "port": 80,
      "loc": "Alvito, Italy 0-30 MHz Frequencies",
      "lat": 41.694738,
      "lon": 13.759247,
      "grid": "JN61vq",
      "users": 2,
      "usersMax": 8,
      "snr": 32,
      "offline": false,
      "antenna": "G5RV Full Size Dir. N/S"
    },
    {
      "id": "1442fc0f74ee",
      "name": "0-30 MHz SDR, HA2NA - HA2QE (GRANTE Tower), Hungary",
      "host": "kiwisdr.ha2na.com",
      "port": 8073,
      "loc": "Esztergom - GRANTE Tower, Hungary",
      "lat": 47.753112,
      "lon": 18.705759,
      "grid": "JN97IS",
      "users": 0,
      "usersMax": 8,
      "snr": 36,
      "offline": false,
      "antenna": "Inv. V 80m"
    },
    {
      "id": "9006f260140a",
      "name": "0-30 MHz DH8WR Rudolstadt JO50QR Ant. 80m Delta Loop vert. full size",
      "host": "22355.proxy.kiwisdr.com",
      "port": 80,
      "loc": "Rudolstadt",
      "lat": 50.7183,
      "lon": 11.3337,
      "grid": "RF82ci",
      "users": 8,
      "usersMax": 8,
      "snr": 33,
      "offline": false,
      "antenna": "80m Delta Loop vert. full size"
    },
    {
      "id": "84bb26e71eec",
      "name": "0-30 MHz SDR | ZW-Friesland, The Netherlands",
      "host": "81.172.193.108",
      "port": 8073,
      "loc": "ZW-Friesland, The Netherlands",
      "lat": 52.87,
      "lon": 5.57,
      "grid": "JO22su",
      "users": 1,
      "usersMax": 1,
      "snr": 32,
      "offline": false,
      "antenna": "Loops, slopers en mini-whip"
    },
    {
      "id": "884aeaf59cc6",
      "name": "2-30MHZ SDR #2, VK5ARG Remote Receiver Site | Near Tarlee, South Australia",
      "host": "kiwisdr.areg.org.au",
      "port": 8074,
      "loc": "Near Tarlee, South Australia",
      "lat": -34.2737,
      "lon": 138.771,
      "grid": "PF95JR",
      "users": 3,
      "usersMax": 8,
      "snr": 33,
      "offline": false,
      "antenna": "Broadband Monopole (\"J-Dart\")"
    },
    {
      "id": "985dad7f4aee",
      "name": "EI6IZ SDR #1 KiwiSDR V2 | Castlebar, Co Mayo, Ireland",
      "host": "88.81.100.130",
      "port": 8073,
      "loc": "Castlebar, Co Mayo, Ireland",
      "lat": 53.84,
      "lon": -9.37,
      "grid": "IO53hu",
      "users": 2,
      "usersMax": 8,
      "snr": 33,
      "offline": false,
      "antenna": "Active loop"
    },
    {
      "id": "f82e0c0ea3e1",
      "name": "0-30 MHz SDR | 52249 Eschweiler - Germany",
      "host": "78.35.186.107",
      "port": 8073,
      "loc": "52249 Eschweiler - Germany",
      "lat": 50.80546,
      "lon": 6.26035,
      "grid": "RF82ci",
      "users": 0,
      "usersMax": 8,
      "snr": 36,
      "offline": false,
      "antenna": "MegaAktiv MA305FT (BONITO) 9KHz-300MHz"
    },
    {
      "id": "6433db1fa731",
      "name": "DC1EHG | Haselunne, Germany",
      "host": "hanshomepa0ehg.ddns.net",
      "port": 8073,
      "loc": "Haselunne, Germany",
      "lat": 52.68,
      "lon": 7.52,
      "grid": "JO32sq",
      "users": 0,
      "usersMax": 4,
      "snr": 35,
      "offline": false,
      "antenna": "Alford active loop"
    },
    {
      "id": "c4f312a68acf",
      "name": "0-30 MHz KiwiSDR-F6ABJ-France",
      "host": "f6abj-kiwihf.ddns.net",
      "port": 8075,
      "loc": "Pommier de Beaurepaire (38) France",
      "lat": 45.384028,
      "lon": 5.093461,
      "grid": "JN25nj",
      "users": 0,
      "usersMax": 8,
      "snr": 30,
      "offline": false,
      "antenna": "80m half wave dipole 10m above ground"
    },
    {
      "id": "0804b48295b6",
      "name": "KiwiSDR-1 PA8AD | De Kiel, Netherlands",
      "host": "pa8ad-1.proxy.kiwisdr.com",
      "port": 80,
      "loc": "De Kiel, Netherlands",
      "lat": 52.855925,
      "lon": 6.737133,
      "grid": "JO32iu",
      "users": 0,
      "usersMax": 2,
      "snr": 33,
      "offline": false,
      "antenna": "Vertical 11m"
    },
    {
      "id": "f82e0c014dc3",
      "name": "SV2CSN 0-30 MHz SDR FROM EDESSA GREECE",
      "host": "21900.proxy.kiwisdr.com",
      "port": 80,
      "loc": "EDESSA, GREECE",
      "lat": 40.809453,
      "lon": 22.070504,
      "grid": "KN10at",
      "users": 0,
      "usersMax": 3,
      "snr": 35,
      "offline": false,
      "antenna": "Multiband dipole"
    },
    {
      "id": "780473834f20",
      "name": "OE5SLN Web-SDR | Mehrnbach, Upper Austria, Austria",
      "host": "178.115.248.93",
      "port": 8073,
      "loc": "Mehrnbach, Upper Austria, Austria",
      "lat": 48.203277,
      "lon": 13.442537,
      "grid": "JN68RE",
      "users": 2,
      "usersMax": 8,
      "snr": 33,
      "offline": false,
      "antenna": "usually rotary dipole, while being qrv mla-30 active loop"
    },
    {
      "id": "0804b475bb0c",
      "name": "0-30 MHz KiwiSDR2 - Doublet 2x17meter | Zierikzee, (SW) Netherlands",
      "host": "21886.proxy.kiwisdr.com",
      "port": 80,
      "loc": "Zierikzee, (SW) Netherlands",
      "lat": 51.655034,
      "lon": 3.910054,
      "grid": "JO11wp",
      "users": 5,
      "usersMax": 8,
      "snr": 31,
      "offline": false,
      "antenna": "Doublet (2x17meter)"
    },
    {
      "id": "3484e4006a41",
      "name": "Silesia | Poland",
      "host": "okno.ddns.net",
      "port": 8073,
      "loc": "Poland",
      "lat": 50.0,
      "lon": 19.01,
      "grid": "JN99mx",
      "users": 3,
      "usersMax": 4,
      "snr": 32,
      "offline": false,
      "antenna": "G5Rv"
    },
    {
      "id": "6433db1bde10",
      "name": "DL7VDX SDR 0-30MHz Ant: Cushcraft R7000 | Werneuchen, Brandenburg, Germany",
      "host": "sdr.dl7vdx.com",
      "port": 80,
      "loc": "Werneuchen, Brandenburg, Germany",
      "lat": 52.65822,
      "lon": 13.78117,
      "grid": "JO62VP",
      "users": 0,
      "usersMax": 8,
      "snr": 33,
      "offline": false,
      "antenna": "Cushcraft R7000"
    },
    {
      "id": "780473834f1d",
      "name": "0-30 MHz SDR, HB9RLM | Zielebach Switzerland",
      "host": "hb9rlm.ddns.net",
      "port": 8073,
      "loc": "Zielebach Switzerland",
      "lat": 47.160165,
      "lon": 7.580429,
      "grid": "JN37sd",
      "users": 0,
      "usersMax": 8,
      "snr": 30,
      "offline": false,
      "antenna": "W2000"
    },
    {
      "id": "e06234437fef",
      "name": "DL4EECKiwi | Wangerland, Germany",
      "host": "dl4eeckiwi.proxy.kiwisdr.com",
      "port": 80,
      "loc": "Wangerland, Germany",
      "lat": 53.631974,
      "lon": 7.907875,
      "grid": null,
      "users": 2,
      "usersMax": 4,
      "snr": 30,
      "offline": false,
      "antenna": "End feed L Antenne 42m long or R&S HA178 broadband vertical"
    },
    {
      "id": "40bd32e49920",
      "name": "0-30 MHz SDR, Hurricane (Northern Germany)",
      "host": "hurricane.ddns.me",
      "port": 8073,
      "loc": "Hurricane (Northern Germany)",
      "lat": 53.161016,
      "lon": 9.52521,
      "grid": "JO43sd",
      "users": 0,
      "usersMax": 3,
      "snr": 31,
      "offline": false,
      "antenna": "half-wave dipole"
    },
    {
      "id": "b83df630fe49",
      "name": "HB9ADJ | Roche VD Switzerland",
      "host": "22579.proxy.kiwisdr.com",
      "port": 80,
      "loc": "Roche VD Switzerland",
      "lat": 46.36,
      "lon": 6.92,
      "grid": "JN36li",
      "users": 1,
      "usersMax": 8,
      "snr": 35,
      "offline": false,
      "antenna": "Hexbeam SP6CYN 14-30 Mhz"
    },
    {
      "id": "780473832a84",
      "name": "0-30 MHz SDR, | Poland, Warsaw",
      "host": "warszawa.proxy.kiwisdr.com",
      "port": 80,
      "loc": "Poland, Warsaw",
      "lat": 52.259885,
      "lon": 20.957187,
      "grid": null,
      "users": 0,
      "usersMax": 4,
      "snr": 30,
      "offline": false,
      "antenna": "Test"
    },
    {
      "id": "e415f6f785fd",
      "name": "SUOMEN DX-LIITTO (SDXL-VIR) FINNISH DX-ASSOCIATION (FDXA) 170m BOG 250 deg VIRRAT, POHJOIS-HÄME FINLAND 🇫🇮",
      "host": "sdxlkiwi7.proxy.kiwisdr.com",
      "port": 80,
      "loc": "Kotala, Virrat, Finland",
      "lat": 62.265653,
      "lon": 24.032185,
      "grid": "KP22af",
      "users": 1,
      "usersMax": 8,
      "snr": 37,
      "offline": false,
      "antenna": "Active Antenna 1m loop"
    },
    {
      "id": "f82e0c015357",
      "name": "ik4mtc | collecchio, italy",
      "host": "21887.proxy.kiwisdr.com",
      "port": 80,
      "loc": "collecchio, italy",
      "lat": 44.74,
      "lon": 10.19,
      "grid": "JN54cr",
      "users": 0,
      "usersMax": 8,
      "snr": 28,
      "offline": false,
      "antenna": "ad370r active dipole-Maxi whip 10 meters high- Mini whip pa0rdt"
    },
    {
      "id": "0804b483109e",
      "name": "DG3SDK | 0-30 MHz SDR | Esslingen, Germany",
      "host": "kiwi.dg3sdk.de",
      "port": 80,
      "loc": "Esslingen, Germany",
      "lat": 48.745022,
      "lon": 9.32212,
      "grid": "JN48pr",
      "users": 3,
      "usersMax": 8,
      "snr": 31,
      "offline": false,
      "antenna": "long wire"
    },
    {
      "id": "0804b4830585",
      "name": "Fenu-Radio Kiwi2-SDR | Kefikon / Switzerland",
      "host": "fenuradio-kiwi2.ddns.net",
      "port": 8074,
      "loc": "Kefikon / Switzerland",
      "lat": 47.54825,
      "lon": 8.830744,
      "grid": "JN47jn",
      "users": 2,
      "usersMax": 8,
      "snr": 30,
      "offline": false,
      "antenna": "Activdipole Datong AD370 and others"
    },
    {
      "id": "780473a31fb0",
      "name": "Dijon Sud-Est | Bourgogne, France",
      "host": "dijonse.fr",
      "port": 8073,
      "loc": "Bourgogne, France",
      "lat": 47.050018,
      "lon": 5.282854,
      "grid": "JN27",
      "users": 0,
      "usersMax": 3,
      "snr": 30,
      "offline": false,
      "antenna": "Inverted V 40m band dipole."
    },
    {
      "id": "402e71ec70f8",
      "name": "G3SDH. 0-30 MHz KiwiSDR. Wellbrook Loop. | Near Bristol, UK",
      "host": "g3sdh.com",
      "port": 8054,
      "loc": "Near Bristol, UK",
      "lat": 51.31,
      "lon": -2.65,
      "grid": "IO81QH",
      "users": 1,
      "usersMax": 8,
      "snr": 35,
      "offline": false,
      "antenna": "Wellbrook Loop"
    },
    {
      "id": "b83df621c959",
      "name": "0.01-32 MHz SDR | near Landshut, Bavaria, Germany",
      "host": "kiwisdr.dl1rf.ipv64.de",
      "port": 8073,
      "loc": "near Landshut, Bavaria, Germany",
      "lat": 48.414761,
      "lon": 12.278801,
      "grid": "JN68dj",
      "users": 1,
      "usersMax": 7,
      "snr": 33,
      "offline": false,
      "antenna": "active E-field vert. antenna 10 kHz ... >50 MHz"
    },
    {
      "id": "647060d465c3",
      "name": "0-30 MHz SDR | Eganville, Canada",
      "host": "22920.proxy.kiwisdr.com",
      "port": 80,
      "loc": "Eganville, Canada",
      "lat": 45.457723,
      "lon": -77.212941,
      "grid": "FN15jl",
      "users": 0,
      "usersMax": 8,
      "snr": 32,
      "offline": false,
      "antenna": "CHA EMCOMM III Base Antenna"
    },
    {
      "id": "40bd32e54015",
      "name": "0-30 MHz DL0MZ DARC OV-MAINZ | JN49AV @ DF7PN",
      "host": "hallmann.selfhost.eu",
      "port": 80,
      "loc": "JN49AV @ DF7PN",
      "lat": 49.89,
      "lon": 8.07,
      "grid": "jn49av",
      "users": 1,
      "usersMax": 8,
      "snr": 29,
      "offline": false,
      "antenna": "Dipol 40/80m"
    },
    {
      "id": "b4ac9dfae453",
      "name": "SM7IUN 0-30 MHz SDR | Bjärred, Sweden",
      "host": "websdr.sm7iun.se",
      "port": 8073,
      "loc": "Bjärred, Sweden",
      "lat": 55.72,
      "lon": 13.01,
      "grid": "JO65mr",
      "users": 4,
      "usersMax": 8,
      "snr": 31,
      "offline": false,
      "antenna": "FD4 OCF dipole 10m over ground. Poor below 2MHz."
    },
    {
      "id": "3403de9a653c",
      "name": "14 MHz SDR | Kuriyama, Hokkaido JAPAN",
      "host": "sdrhkd.f5.si",
      "port": 8073,
      "loc": "Kuriyama, Hokkaido JAPAN",
      "lat": 43.068317,
      "lon": 141.777515,
      "grid": "QN03vb",
      "users": 1,
      "usersMax": 4,
      "snr": 29,
      "offline": false,
      "antenna": "14MHz Full-size dipole @10mh - UNDER CONSTRUCTION"
    },
    {
      "id": "0035ff98e758",
      "name": "HB9VQQ, homebrew 80m band vertical | Hinwil,Switzerland",
      "host": "kiwi.hb9vqq.ch",
      "port": 8073,
      "loc": "Hinwil,Switzerland",
      "lat": 47.305723,
      "lon": 8.848191,
      "grid": "JN47kh",
      "users": 6,
      "usersMax": 8,
      "snr": 30,
      "offline": false,
      "antenna": "homebrew 80m band vertical"
    },
    {
      "id": "0035ff98d084",
      "name": "Eriz - Berner Oberland - Schweiz 🇨🇭🇨🇭🇨🇭",
      "host": "178.38.151.94",
      "port": 8073,
      "loc": "Eriz - Berner Oberland - Schweiz 🇨🇭🇨🇭🇨🇭",
      "lat": 46.79201,
      "lon": 7.741238,
      "grid": "JN36US",
      "users": 1,
      "usersMax": 3,
      "snr": 33,
      "offline": false,
      "antenna": "Durch die Nähe der Sendestation des Owners, kann es zu Störungen"
    },
    {
      "id": "9884e3baac00",
      "name": "0-30 MHz SDR | Luedinghausen",
      "host": "vampir.proxy.kiwisdr.com",
      "port": 80,
      "loc": "Luedinghausen",
      "lat": 51.780984,
      "lon": 7.52986,
      "grid": "JO31ss",
      "users": 0,
      "usersMax": 8,
      "snr": 30,
      "offline": false,
      "antenna": "10m vertical wire"
    },
    {
      "id": "6433db11e76b",
      "name": "0-30 MHz SDR | Wildberg, Switzerland",
      "host": "wildmountain.ham-radio-op.net",
      "port": 8073,
      "loc": "Wildberg, Switzerland",
      "lat": 47.415721,
      "lon": 8.822449,
      "grid": "JN47JK",
      "users": 0,
      "usersMax": 4,
      "snr": 29,
      "offline": false,
      "antenna": "Cushcraft R6000"
    },
    {
      "id": "689e1985cec0",
      "name": "10 kHz-30 MHz SDR, SM2BYC, Sweden",
      "host": "sm2byc.ddns.net",
      "port": 8073,
      "loc": "Haparanda, Sweden",
      "lat": 65.965298,
      "lon": 24.03,
      "grid": "KP25ax",
      "users": 3,
      "usersMax": 8,
      "snr": 29,
      "offline": false,
      "antenna": "Active whip above 3 MHz, antenna switching below 3 MHz"
    },
    {
      "id": "e415f6f23445",
      "name": "G3SDR, 0-32 MHz Kiwi 8078. Weston-super-Mare. Parallel dipoles for 160m, 80m, 60m & 40m. 5/8th Vertical for 28MHz. Wellbrook Loop for VLF & MW 🖁",
      "host": "g3sdr.com",
      "port": 8078,
      "loc": "Weston-super-Mare, United Kingdom",
      "lat": 51.317266,
      "lon": -2.950479,
      "grid": "IO81MI",
      "users": 6,
      "usersMax": 8,
      "snr": 30,
      "offline": false,
      "antenna": "Parallel dipoles for 160m, 80m, 60m & 40m. 5/8th Vertical with m"
    },
    {
      "id": "6433db1a5e34",
      "name": "0-30 MHZ KIWISDR - DO9PL & 13RC811 - METTMANN / NEANDERTAL - JO31LG - GERMANY",
      "host": "13rc811.ddns.net",
      "port": 8073,
      "loc": "METTMANN / NEANDERTAL - JO31LG - GERMANY",
      "lat": 51.254587,
      "lon": 6.984179,
      "grid": "JO31lg",
      "users": 0,
      "usersMax": 8,
      "snr": 28,
      "offline": false,
      "antenna": "Fritzel GPA30 Special Edition by DO9PL"
    },
    {
      "id": "689e198e7531",
      "name": "Kernow - G8JNJ - 10KHz-30MHz SDR - Cornwall - South West UK",
      "host": "kernow.hopto.org",
      "port": 8073,
      "loc": "Kernow - Cornwall - South West UK",
      "lat": 50.05,
      "lon": -5.18,
      "grid": "IO70jb",
      "users": 0,
      "usersMax": 8,
      "snr": 30,
      "offline": false,
      "antenna": "Active dipole"
    },
    {
      "id": "40bd32c8d9f3",
      "name": "PE1OPQ | Netherlands",
      "host": "radio-tpot.proxy.kiwisdr.com",
      "port": 80,
      "loc": "Netherlands",
      "lat": 53.08,
      "lon": 6.8,
      "grid": "JO33JB",
      "users": 1,
      "usersMax": 3,
      "snr": 28,
      "offline": false,
      "antenna": "loop antenna"
    },
    {
      "id": "9006f25fdf9b",
      "name": "0-30 MHz SDR | Waldheim Saxonia Germany",
      "host": "22327.proxy.kiwisdr.com",
      "port": 80,
      "loc": "Waldheim Saxonia Germany",
      "lat": 51.076631,
      "lon": 12.990407,
      "grid": "JO61lb",
      "users": 0,
      "usersMax": 3,
      "snr": 29,
      "offline": false,
      "antenna": "Funkbau LMK wideband passive + norton preamp 10dB F"
    },
    {
      "id": "98f07b0076a7",
      "name": "Karelia SW DX | Joensuu, Finland",
      "host": "kareliaswdx.ddns.net",
      "port": 8073,
      "loc": "Joensuu, Finland",
      "lat": 62.5,
      "lon": 30.18,
      "grid": "KP20jl",
      "users": 0,
      "usersMax": 4,
      "snr": 35,
      "offline": false,
      "antenna": "Random wire"
    },
    {
      "id": "3403de81254c",
      "name": "0-30 MHz KIWI SDR form DL0HGN/DQ1V | Germany, Hagenow",
      "host": "kiwisdr.dl0hgn.ipv64.net",
      "port": 80,
      "loc": "Germany, Hagenow",
      "lat": 53.402192,
      "lon": 11.218731,
      "grid": "JO53oj",
      "users": 3,
      "usersMax": 3,
      "snr": 30,
      "offline": false,
      "antenna": "Dipol for 160 meters"
    },
    {
      "id": "40bd32c8d2ac",
      "name": "0-30 MHz SDR | Dortmund, Germany",
      "host": "da1vid.ipv64.net",
      "port": 8073,
      "loc": "Dortmund, Germany",
      "lat": 51.556334,
      "lon": 7.383279,
      "grid": "JO31qn",
      "users": 8,
      "usersMax": 8,
      "snr": 29,
      "offline": false,
      "antenna": "60m Wire + Sirio Boomerang + 11m λ/2 Vertical combined"
    },
    {
      "id": "e415f6f74409",
      "name": "LA6LU KiwiSDR - Cha-Am, Thailand (0-30 MHz SDR)",
      "host": "la6lutha.proxy.kiwisdr.com",
      "port": 80,
      "loc": "Cha-Am, Thailand",
      "lat": 12.79,
      "lon": 99.97,
      "grid": "NK92xt",
      "users": 1,
      "usersMax": 8,
      "snr": 38,
      "offline": false,
      "antenna": "NTi MegActiv MA305FT Active Wideband Antenna"
    },
    {
      "id": "3403de631d0d",
      "name": "███ 0-30 MHz SDR #3, VK5PH, Ironstone Range, South Australia ███",
      "host": "sdr.ironstonerange.com",
      "port": 8075,
      "loc": "Ironstone Range, South Australia",
      "lat": -34.964437,
      "lon": 138.76238,
      "grid": "PF95ja",
      "users": 1,
      "usersMax": 8,
      "snr": 32,
      "offline": false,
      "antenna": "12m Duoconical Antenna"
    },
    {
      "id": "d4e95e792b23",
      "name": "0-30 MHz SDR | [N0BQV] [Republic, Missouri. USA",
      "host": "n0bqv.proxy.kiwisdr.com",
      "port": 80,
      "loc": "[N0BQV] [Republic, Missouri. USA",
      "lat": 37.164283,
      "lon": -93.57114,
      "grid": "EM37fd",
      "users": 3,
      "usersMax": 7,
      "snr": 33,
      "offline": false,
      "antenna": "40-75 meter Inverted Vee, feed point @ 75 Feet, 23 Meters....Ple"
    },
    {
      "id": "40bd32e30ee2",
      "name": "0-52 MHz SDR VISEU PORTUGAL PICAMIOLOS",
      "host": "tsunami.sytes.net",
      "port": 8073,
      "loc": "VISEU PORTUGAL",
      "lat": 40.71,
      "lon": -8.05,
      "grid": "3670-237",
      "users": 1,
      "usersMax": 1,
      "snr": 27,
      "offline": false,
      "antenna": null
    },
    {
      "id": "6433db49bc88",
      "name": "ARI-Isola d'Ischia M.te Epomeo",
      "host": "82.85.225.234",
      "port": 8073,
      "loc": "Ischia, Italy",
      "lat": 40.730154,
      "lon": 13.90228,
      "grid": "JN60WR",
      "users": 2,
      "usersMax": 8,
      "snr": 30,
      "offline": false,
      "antenna": "G5RV"
    },
    {
      "id": "985dad7f456a",
      "name": "DL2SBA | Filderstadt/Germany",
      "host": "dl2sba.ddns.net",
      "port": 8073,
      "loc": "Filderstadt/Germany",
      "lat": 48.67,
      "lon": 9.24,
      "grid": "JN48",
      "users": 0,
      "usersMax": 8,
      "snr": 32,
      "offline": false,
      "antenna": "<a href"
    },
    {
      "id": "0035ff9a436a",
      "name": "EA5JGN | Hondon Valley SDR | Spain",
      "host": "ei2hh.proxy.kiwisdr.com",
      "port": 80,
      "loc": "Spain",
      "lat": 38.31,
      "lon": -0.9,
      "grid": "IM98NH",
      "users": 0,
      "usersMax": 8,
      "snr": 31,
      "offline": false,
      "antenna": "Delta loop"
    },
    {
      "id": "0cb2b7d6da9a",
      "name": "Test KiwiSDR hosted by PSO Kotka",
      "host": "kotisauna.psokotka.com",
      "port": 9001,
      "loc": "Kotka, Finland 🇫🇮",
      "lat": 60.4667,
      "lon": 26.9458,
      "grid": "KP30lm",
      "users": 0,
      "usersMax": 8,
      "snr": 29,
      "offline": false,
      "antenna": "Wellbrook ALA1530LN"
    },
    {
      "id": "0804b4a0038d",
      "name": "EI5IN | Ireland Central | Mullingar | Westmeath | 580m/1900ft Beverage NE/SW",
      "host": "44.31.191.63",
      "port": 8073,
      "loc": "Mullingar, Westmeath, Ireland",
      "lat": 53.58,
      "lon": -7.35,
      "grid": "IO63hn",
      "users": 3,
      "usersMax": 4,
      "snr": 34,
      "offline": false,
      "antenna": "Beverage NE/SW 580m long"
    },
    {
      "id": "6433db465d80",
      "name": "0-30 MHz SDR | Dover",
      "host": "176.26.93.169",
      "port": 8073,
      "loc": "Dover",
      "lat": 51.1565,
      "lon": 1.28888,
      "grid": "JO01pd",
      "users": 1,
      "usersMax": 3,
      "snr": 31,
      "offline": false,
      "antenna": "wellbrook ala100ln via 15db attenuator."
    },
    {
      "id": "b4ac9dfa6479",
      "name": "F5LFE - North Burgundy KiwiSDR 0-30 MHZ | Marsangy (89), France",
      "host": "www.f5lfe.fr",
      "port": 8073,
      "loc": "Marsangy (89), France",
      "lat": 48.119606,
      "lon": 3.24148,
      "grid": "JN18oc",
      "users": 0,
      "usersMax": 8,
      "snr": 30,
      "offline": false,
      "antenna": "can be 31 meters EFRW or horizontal delta loop 83 meters dependi"
    },
    {
      "id": "247625a0944e",
      "name": "0-30 MHz SDR, G8OCV/M1GEO, Pulham Market, UK",
      "host": "norfolk.george-smart.co.uk",
      "port": 8073,
      "loc": "Pulham Market, Norfolk, UK",
      "lat": 52.441319,
      "lon": 1.214225,
      "grid": "JO02ok",
      "users": 7,
      "usersMax": 8,
      "snr": 30,
      "offline": false,
      "antenna": "<a href"
    },
    {
      "id": "74a58cff9c09",
      "name": "0-30 MHZ Funkfreunde Werratal | Tiefenort-Krayenburg,Germany",
      "host": "4xe4gzz9q3vzm153.myfritz.net",
      "port": 8073,
      "loc": "Tiefenort-Krayenburg,Germany",
      "lat": 50.835637,
      "lon": 10.129229,
      "grid": "RF82ci",
      "users": 2,
      "usersMax": 8,
      "snr": 26,
      "offline": false,
      "antenna": "Hari Windom 160-10 HP"
    },
    {
      "id": "b8804f25b854",
      "name": "0-30 MHz SDR | Pecs (Tubes), Hungary",
      "host": "ha3pmf.dwatt.com",
      "port": 8074,
      "loc": "Pecs (Tubes), Hungary",
      "lat": 46.1087,
      "lon": 18.203,
      "grid": "JN96CC",
      "users": 2,
      "usersMax": 8,
      "snr": 30,
      "offline": false,
      "antenna": "Miniwhip up about 10m in an oak tree"
    },
    {
      "id": "3403de8b3421",
      "name": "0-30 MHz SDR DO6DOC Andi | Dortmund, Germany",
      "host": "kiwisdr.serveftp.com",
      "port": 8073,
      "loc": "Dortmund, Germany",
      "lat": 51.5,
      "lon": 7.41,
      "grid": "JO31ql",
      "users": 1,
      "usersMax": 8,
      "snr": 31,
      "offline": false,
      "antenna": "80-10m Trap Dipol 13m above Ground, Gainmaster 10m Vertical via "
    },
    {
      "id": "b4ac9dfb5b9f",
      "name": "0-30 MHz SDR, DL1BAJ | Hooksiel, Germany",
      "host": "dl1bajkiwisdr.ddns.net",
      "port": 8074,
      "loc": "Hooksiel, Germany",
      "lat": 53.630673,
      "lon": 8.026295,
      "grid": "JO43ap",
      "users": 1,
      "usersMax": 8,
      "snr": 28,
      "offline": false,
      "antenna": "MegaLoop FX 15m"
    },
    {
      "id": "40bd32e54d59",
      "name": "PE1MUQ | Netherlands",
      "host": "pe1muq.proxy.kiwisdr.com",
      "port": 80,
      "loc": "Emst, Netherlands",
      "lat": 52.315707,
      "lon": 5.971058,
      "grid": "JO22xh",
      "users": 0,
      "usersMax": 3,
      "snr": 29,
      "offline": false,
      "antenna": "Loop NNE/SSW with LZ1AQ preamp <B>(no antenna when transmitting)"
    },
    {
      "id": "9006f25fe52f",
      "name": "JA5FP 40m | Chiba, Japan",
      "host": "ja5fp2.proxy.kiwisdr.com",
      "port": 80,
      "loc": "Chiba, Japan",
      "lat": 35.667916,
      "lon": 140.171996,
      "grid": "QM05cq",
      "users": 3,
      "usersMax": 4,
      "snr": 27,
      "offline": false,
      "antenna": "EndFed"
    },
    {
      "id": "0804b4829d9c",
      "name": "IG-AFU Telekom Bonn",
      "host": "dl0dtm.ddns.net",
      "port": 8073,
      "loc": "Bonn, Germany",
      "lat": 50.69,
      "lon": 7.14,
      "grid": "JO30nq",
      "users": 0,
      "usersMax": 3,
      "snr": 30,
      "offline": false,
      "antenna": null
    },
    {
      "id": "b8804f25a171",
      "name": "0-30 MHz SDR | Viestikallio OH2MOH, Artjärvi, Finland",
      "host": "oh2moh.proxy.kiwisdr.com",
      "port": 80,
      "loc": "Viestikallio OH2MOH, Artjärvi, Finland",
      "lat": 60.734355,
      "lon": 26.211142,
      "grid": "KP30CR",
      "users": 0,
      "usersMax": 4,
      "snr": 27,
      "offline": false,
      "antenna": "Log Periodic"
    },
    {
      "id": "40bd32c8dbd9",
      "name": "DL0WH | Weinheim, nr Heidelberg, Germany",
      "host": "db0whm.hamnet.network",
      "port": 8073,
      "loc": "Weinheim, nr Heidelberg, Germany",
      "lat": 49.57318,
      "lon": 8.622059,
      "grid": "JN49hn",
      "users": 1,
      "usersMax": 4,
      "snr": 29,
      "offline": false,
      "antenna": "DL4ZAO MiniWhip Pro+ (4m AGL) <a href"
    },
    {
      "id": "40bd32c8d492",
      "name": "K3FEF Milford PA USA",
      "host": "kiwisdr.k3fef.com",
      "port": 8073,
      "loc": "Milford, PA USA",
      "lat": 41.325953,
      "lon": -74.922089,
      "grid": "FN21mh",
      "users": 3,
      "usersMax": 8,
      "snr": 28,
      "offline": false,
      "antenna": "Hermes Loop"
    },
    {
      "id": "b8804f25ac5a",
      "name": "DL8LAS Trent, 0-30 MHz SDR",
      "host": "dl8las.proxy.kiwisdr.com",
      "port": 80,
      "loc": "Trent JO54EF, Deutschland",
      "lat": 54.205979,
      "lon": 10.364482,
      "grid": "JO54ee",
      "users": 2,
      "usersMax": 8,
      "snr": 31,
      "offline": false,
      "antenna": "Active Vertical Loop"
    },
    {
      "id": "9006f2600963",
      "name": "0-30 MHz KiwiSDR 2 | Bernau bei Berlin, Germany",
      "host": "db0bbb.dnshome.de",
      "port": 8073,
      "loc": "Bernau bei Berlin, Germany",
      "lat": 52.672969,
      "lon": 13.547237,
      "grid": "JO62sq",
      "users": 4,
      "usersMax": 8,
      "snr": 27,
      "offline": false,
      "antenna": "Diamond WD-330J/S"
    },
    {
      "id": "98f07bffa74c",
      "name": "KiwiSDR#2 from DO9HM | Seybothenreuth, Bavaria-Germany",
      "host": "do9hm.proxy.kiwisdr.com",
      "port": 80,
      "loc": "Seybothenreuth, Bavaria-Germany",
      "lat": 49.897764,
      "lon": 11.704494,
      "grid": "JN59UV",
      "users": 0,
      "usersMax": 8,
      "snr": 29,
      "offline": false,
      "antenna": "Long-wire"
    },
    {
      "id": "f82e0c01a25c",
      "name": "0-30 MHz | Guipry-Messac, FRANCE",
      "host": "21924.proxy.kiwisdr.com",
      "port": 80,
      "loc": "Guipry-Messac, FRANCE",
      "lat": 47.83,
      "lon": -1.85,
      "grid": "IN97bt",
      "users": 0,
      "usersMax": 3,
      "snr": 28,
      "offline": false,
      "antenna": "EFHW"
    },
    {
      "id": "985dad48ecbe",
      "name": "0-30 MHz KIWI SDR( 4ch ), HL5NTR, Daegu_City Republic of Korea. Loop-type Antenna.",
      "host": "hl5ntr.ddns.net",
      "port": 8074,
      "loc": "Dae_Gu City, South Korea",
      "lat": 35.888778,
      "lon": 128.574964,
      "grid": "PM45HV02",
      "users": 6,
      "usersMax": 8,
      "snr": 29,
      "offline": false,
      "antenna": "HF 85M Loop Antenna and 6M Band 6 Ele Yagi & 5/8 GP Antenna"
    },
    {
      "id": "b4ac9dfb2e60",
      "name": "HB9VQQ, Spiderbeam Yagi 40-20-15-17-12-10 | Hinwil,Switzerland",
      "host": "kiwiv2.hb9vqq.ch",
      "port": 8074,
      "loc": "Hinwil,Switzerland",
      "lat": 47.305725,
      "lon": 8.848116,
      "grid": "JN47kh",
      "users": 0,
      "usersMax": 8,
      "snr": 28,
      "offline": false,
      "antenna": "Spiderbeam Yagi"
    },
    {
      "id": "98f07b68be72",
      "name": "0-30 MHz SDR | CH-3464 Schmidigen-Mühleweg",
      "host": "hb9cl.proxy.kiwisdr.com",
      "port": 80,
      "loc": "CH-3464 Schmidigen-Mühleweg",
      "lat": 47.094217,
      "lon": 7.755865,
      "grid": "jn37vc",
      "users": 0,
      "usersMax": 8,
      "snr": 25,
      "offline": false,
      "antenna": "Diamond CP-6"
    },
    {
      "id": "0804b4671f0d",
      "name": "Innherred SDR 0-30 MHz",
      "host": "innherred.proxy.kiwisdr.com",
      "port": 80,
      "loc": "Innherred, Norway",
      "lat": 63.8,
      "lon": 11.3,
      "grid": "JP53",
      "users": 0,
      "usersMax": 3,
      "snr": 26,
      "offline": false,
      "antenna": "MyAntennas.com EFHW-8010-LP"
    },
    {
      "id": "647060c1b525",
      "name": "M7ILU SDR | Crowthorne, Berkshire, RG45 6HB",
      "host": "m7ilu.proxy.kiwisdr.com",
      "port": 80,
      "loc": "Crowthorne, Berkshire, RG45 6HB",
      "lat": 51.37,
      "lon": -0.81,
      "grid": "IO91oi",
      "users": 0,
      "usersMax": 8,
      "snr": 28,
      "offline": false,
      "antenna": "EFHW"
    },
    {
      "id": "985dad7f1b72",
      "name": "0-30 MHz SDR | HB9ODP | Ticino, South Switzerland, 1600m, near Gotthard Pass | 160m triangle loop antenna H~12m",
      "host": "hb9odp.proxy.kiwisdr.com",
      "port": 80,
      "loc": "Near Carì, Switzerland",
      "lat": 46.499351,
      "lon": 8.798828,
      "grid": "JN46jl",
      "users": 2,
      "usersMax": 8,
      "snr": 30,
      "offline": false,
      "antenna": "160m wire loop, 20m ladder 450ohm, balun 4:1 <font color"
    },
    {
      "id": "e415f6f745b3",
      "name": "K1VL (5) Shrewsbury, Vermont, USA - 36+ receivers",
      "host": "sdr.k1vl.com",
      "port": 8077,
      "loc": "Shrewsbury, Vermont, USA",
      "lat": 43.507697,
      "lon": -72.816799,
      "grid": "FN33om",
      "users": 0,
      "usersMax": 8,
      "snr": 30,
      "offline": false,
      "antenna": "82m (270ft) center fed doublet @ 20m (65ft) MF through HF"
    },
    {
      "id": "58a15ffbc31c",
      "name": "0-30 MHz SDR | Città di San Marino, Republic of San Marino",
      "host": "22416.proxy.kiwisdr.com",
      "port": 80,
      "loc": "Città di San Marino, Republic of San Marino",
      "lat": 43.938063,
      "lon": 12.445187,
      "grid": "jn63fv",
      "users": 1,
      "usersMax": 8,
      "snr": 26,
      "offline": false,
      "antenna": "Hfd loop"
    },
    {
      "id": "f82e0c0e9bdd",
      "name": "0-30 MHz SDR | Woking, England",
      "host": "145.40.178.33",
      "port": 8073,
      "loc": "Woking, England",
      "lat": 51.3,
      "lon": -0.63,
      "grid": "IO91qh",
      "users": 3,
      "usersMax": 8,
      "snr": 28,
      "offline": false,
      "antenna": "EF"
    },
    {
      "id": "9006f25faeb1",
      "name": "F5EFK SDR | Vannes , France",
      "host": "22111.proxy.kiwisdr.com",
      "port": 80,
      "loc": "Vannes , France",
      "lat": 47.664805,
      "lon": -2.736385,
      "grid": "IN87pp",
      "users": 0,
      "usersMax": 8,
      "snr": 27,
      "offline": false,
      "antenna": "Long Wire 31 m"
    },
    {
      "id": "985dad7f588e",
      "name": "0-30 MHz KIWI SDR( 8ch ), HL5NTR, Daegu_City Republic of Korea. 85M Loop-type Antenna.",
      "host": "hl5ntr-sdr.ddns.net",
      "port": 8073,
      "loc": "Dae_Gu City, South Korea",
      "lat": 35.888778,
      "lon": 128.574964,
      "grid": "PM45HV01",
      "users": 6,
      "usersMax": 8,
      "snr": 30,
      "offline": false,
      "antenna": "2m Collinear Antenna | 6m: 6-ele Yagi + 5/8 GP Antennas | HF: 85"
    },
    {
      "id": "38d269837ea9",
      "name": "RX Ahornalp LU, 1'140 asl 🇨🇭 @ HB9DSE, 1 - 30MHz",
      "host": "ahorn.proxy.kiwisdr.com",
      "port": 80,
      "loc": "Ahornalp LU, 1'140 asl, Switzerland",
      "lat": 47.05,
      "lon": 7.87,
      "grid": null,
      "users": 1,
      "usersMax": 4,
      "snr": 26,
      "offline": false,
      "antenna": "Terminated Folded Dipole T2FD"
    },
    {
      "id": "b8804f25a909",
      "name": "0-30 MHz KIWI SDR RECIVER | OZ1KVB Soenderborg Denmark",
      "host": "86.52.211.220",
      "port": 8073,
      "loc": "OZ1KVB Soenderborg Denmark",
      "lat": 54.90338,
      "lon": 9.806318,
      "grid": "JO44vv",
      "users": 0,
      "usersMax": 8,
      "snr": 29,
      "offline": false,
      "antenna": "Antenna WELLGOOD HOMEBREW . SMPS noise can occur And strong harm"
    },
    {
      "id": "f82e0c01b429",
      "name": "0-30 MHz KiwiSDR,Julussdalen#1, Elverum - Norway",
      "host": "julussdalen1.proxy.kiwisdr.com",
      "port": 80,
      "loc": "Elverum, Norway",
      "lat": 61.037636,
      "lon": 11.689167,
      "grid": "JP51ua",
      "users": 0,
      "usersMax": 8,
      "snr": 25,
      "offline": false,
      "antenna": "Wellbrook ALA1530LNP 227° / 47° (Uk-S.AM / Japan-NZ)"
    },
    {
      "id": "f82e0c144b9b",
      "name": "10 kHz - 30 MHz SDR receiver - KiwiSDR 2 (2024) | LA3CO - Sandefjord, NORWAY",
      "host": "21702.proxy.kiwisdr.com",
      "port": 80,
      "loc": "LA3CO - Sandefjord, NORWAY",
      "lat": 59.15,
      "lon": 10.22,
      "grid": "JO59cd",
      "users": 0,
      "usersMax": 3,
      "snr": 27,
      "offline": false,
      "antenna": "Beverage, terminated. Main lobe: 85 degrees (southeast Asia and "
    },
    {
      "id": "9006f2604400",
      "name": "LA3L Larvik Norway",
      "host": "22207.proxy.kiwisdr.com",
      "port": 80,
      "loc": "Larvik, Norway",
      "lat": 59.025056,
      "lon": 9.967461,
      "grid": "JO49xa",
      "users": 0,
      "usersMax": 8,
      "snr": 26,
      "offline": false,
      "antenna": "dipole"
    },
    {
      "id": "6433db1f6492",
      "name": "iv3hzr-Bayer Muggia(Trieste)Antenna Wellbrook ALA1530 LN-Replica",
      "host": "93.43.217.147",
      "port": 8075,
      "loc": "Muggia(Trieste) ITALY",
      "lat": 45.61,
      "lon": 13.74,
      "grid": "JN65UO",
      "users": 0,
      "usersMax": 3,
      "snr": 28,
      "offline": false,
      "antenna": "Antenna Wellbrook ALA1530 LN-Replica"
    },
    {
      "id": "985dad7f14d9",
      "name": "0-30 MHz SDR | Wels AT",
      "host": "witikiwi.ddns.net",
      "port": 8073,
      "loc": "Wels AT",
      "lat": 48.15224,
      "lon": 13.998464,
      "grid": "JN68xd",
      "users": 7,
      "usersMax": 8,
      "snr": 27,
      "offline": false,
      "antenna": "Active Loop / Active Dipol"
    },
    {
      "id": "b83df621b88e",
      "name": "0-30MHZ SDR,JH4SBD | Fukuyama, Japan",
      "host": "sdrfukuyama.ddns.net",
      "port": 8073,
      "loc": "Fukuyama, Japan",
      "lat": 34.474528,
      "lon": 133.345189,
      "grid": "PM64ql",
      "users": 6,
      "usersMax": 8,
      "snr": 25,
      "offline": false,
      "antenna": "End Fed Half Wave Antenna(49:1 Balun) 42mL"
    },
    {
      "id": "38d2697cae32",
      "name": "K1VL (4) Shrewsbury, Vermont, USA - 36+ receivers",
      "host": "sdr.k1vl.com",
      "port": 8076,
      "loc": "Shrewsbury, Vermont, USA",
      "lat": 43.507697,
      "lon": -72.816799,
      "grid": "FN33om",
      "users": 4,
      "usersMax": 8,
      "snr": 31,
      "offline": false,
      "antenna": "82m (270ft) center fed doublet @ 20m (65ft) MF through HF"
    },
    {
      "id": "985dad7f3cac",
      "name": "0-30 MHz SDR | Korschenbroich, Germany",
      "host": "kiwi.apps.exdsl.nl",
      "port": 80,
      "loc": "Korschenbroich, Germany",
      "lat": 51.2,
      "lon": 6.51,
      "grid": "JO31ge",
      "users": 0,
      "usersMax": 8,
      "snr": 27,
      "offline": false,
      "antenna": "LZ1AQ Antenna, \\\"Lazy Loop\\\""
    },
    {
      "id": "6433db0f5a78",
      "name": "K1VL (3) Shrewsbury, Vermont, USA - 36+ receivers",
      "host": "sdr.k1vl.com",
      "port": 8075,
      "loc": "Shrewsbury, Vermont, USA",
      "lat": 43.507697,
      "lon": -72.816799,
      "grid": "FN33om",
      "users": 4,
      "usersMax": 8,
      "snr": 29,
      "offline": false,
      "antenna": "82m (270ft) center fed doublet @ 20m (65ft) MF through HF"
    },
    {
      "id": "40bd32c8d063",
      "name": "0-32 MHz SDR, S5/S57BIT, Slovenia",
      "host": "s57bit.proxy.kiwisdr.com",
      "port": 80,
      "loc": "Skofja Loka, Slovenia",
      "lat": 46.17,
      "lon": 14.3,
      "grid": "JN76de",
      "users": 0,
      "usersMax": 2,
      "snr": 27,
      "offline": false,
      "antenna": "End Fed"
    },
    {
      "id": "b4ac9dfb7f99",
      "name": "K1VL (1) Shrewsbury, Vermont, USA - 36+ receivers",
      "host": "sdr.k1vl.com",
      "port": 8073,
      "loc": "Shrewsbury, Vermont, USA",
      "lat": 43.507697,
      "lon": -72.816799,
      "grid": "FN33om",
      "users": 4,
      "usersMax": 8,
      "snr": 30,
      "offline": false,
      "antenna": "82m (270ft) center fed doublet @ 20m (65ft) MF through HF"
    },
    {
      "id": "40bd32e47574",
      "name": "0-30 MHz SDR, DF3AF | Lippstadt -Bad Waldliesborn",
      "host": "df3af.ddns.net",
      "port": 8073,
      "loc": "Lippstadt -Bad Waldliesborn",
      "lat": 51.705434,
      "lon": 8.336273,
      "grid": "JO41EQ",
      "users": 0,
      "usersMax": 8,
      "snr": 26,
      "offline": false,
      "antenna": "Stampl Dipol 10-160 Meter"
    },
    {
      "id": "647060cb5506",
      "name": "0-30 MHz SDR VK2XLY E25ZWJ | Khon Kaen THAILAND",
      "host": "22848.proxy.kiwisdr.com",
      "port": 80,
      "loc": "Khon Kaen THAILAND",
      "lat": 16.64,
      "lon": 102.37,
      "grid": "OK16ep",
      "users": 0,
      "usersMax": 8,
      "snr": 24,
      "offline": false,
      "antenna": "Diamond WD330 25 Metres Long Broadband Wire 2-30Mhz"
    },
    {
      "id": "b4ac9dfb7ff0",
      "name": "🌲46º North #2 ~ K9DXI, Presque Isle, Wisconsin | USA🌲",
      "host": "21042.proxy.kiwisdr.com",
      "port": 80,
      "loc": "Presque Isle, WI USA",
      "lat": 46.229947,
      "lon": -89.595361,
      "grid": "EN56ef",
      "users": 0,
      "usersMax": 3,
      "snr": 24,
      "offline": false,
      "antenna": "85 Meter Loop > 500 - 1500 kHz Filter > MCA104M Split"
    },
    {
      "id": "40bd32e93d8f",
      "name": "0-30 MHz SDR | Rottweil, Baden - Württemberg, Germany",
      "host": "db3th.proxy.kiwisdr.com",
      "port": 80,
      "loc": "Rottweil, Baden - Württemberg, Germany",
      "lat": 48.231823,
      "lon": 8.663999,
      "grid": "JN48he",
      "users": 0,
      "usersMax": 8,
      "snr": 26,
      "offline": false,
      "antenna": "Gap Titan DX & Sirio GPA 27"
    },
    {
      "id": "f82e0c016d00",
      "name": "F1UBL - JN08 near Paris - Yvelines - France - 0-30 MHz SDR",
      "host": "f1ubl.ddns.net",
      "port": 8072,
      "loc": "Maurepas, France",
      "lat": 48.77,
      "lon": 1.94,
      "grid": "JN08xs",
      "users": 0,
      "usersMax": 8,
      "snr": 24,
      "offline": false,
      "antenna": "MLA 30+ Loop"
    },
    {
      "id": "985dad491c1c",
      "name": "SK5SM | Sweden",
      "host": "sk5sm.proxy.kiwisdr.com",
      "port": 80,
      "loc": "Sweden",
      "lat": 58.55,
      "lon": 15.04,
      "grid": "JO78mn",
      "users": 1,
      "usersMax": 4,
      "snr": 25,
      "offline": false,
      "antenna": "41 m EFHW"
    },
    {
      "id": "e06234673c4a",
      "name": "North Bridgend SDR 0-30MHz",
      "host": "gw0kax.proxy.kiwisdr.com",
      "port": 80,
      "loc": "Sarn, Bridgend, South Wales",
      "lat": 51.535344,
      "lon": -3.583852,
      "grid": "IO81FM",
      "users": 0,
      "usersMax": 8,
      "snr": 23,
      "offline": false,
      "antenna": "40m Long Doublet"
    },
    {
      "id": "883f4a94b3f0",
      "name": "0-30 MHz SDR, DK0TE, DHBW Ravensburg Campus Friedrichshafen, Germany",
      "host": "kiwisdr.inf.dhbw-ravensburg.de",
      "port": 8073,
      "loc": "Friedrichshafen, Germany",
      "lat": 47.665021,
      "lon": 9.448193,
      "grid": "JN47rp",
      "users": 0,
      "usersMax": 8,
      "snr": 24,
      "offline": false,
      "antenna": "T2FD in attic."
    },
    {
      "id": "0035ff8df93e",
      "name": "Hamburg Metropol south | Germany",
      "host": "kiwisdr.dynpc.net",
      "port": 8073,
      "loc": "Germany",
      "lat": 53.43,
      "lon": 9.77,
      "grid": "JO43",
      "users": 1,
      "usersMax": 8,
      "snr": 26,
      "offline": false,
      "antenna": "Endfeed 9m"
    },
    {
      "id": "9006f2602c61",
      "name": "0-30 MHz SDR | Chiba, Japan",
      "host": "22299.proxy.kiwisdr.com",
      "port": 80,
      "loc": "Chiba, Japan",
      "lat": 35.45,
      "lon": 140.06,
      "grid": "QM05ak",
      "users": 0,
      "usersMax": 8,
      "snr": 23,
      "offline": false,
      "antenna": "Magnetic Loop Antenna"
    },
    {
      "id": "b4ac9dfb7ff9",
      "name": "0-30 MHz SDR | Willesden, London",
      "host": "21145.proxy.kiwisdr.com",
      "port": 80,
      "loc": "Willesden, London",
      "lat": 51.544717,
      "lon": -0.236838,
      "grid": "IO91vn",
      "users": 1,
      "usersMax": 8,
      "snr": 26,
      "offline": false,
      "antenna": "Boni-Whip"
    },
    {
      "id": "9006f25fae8d",
      "name": "0 - 30 MHz | Svartklubbudden, Sweden",
      "host": "qdyng1sz.ddns.remoterig.com",
      "port": 8073,
      "loc": "Svartklubbudden, Sweden",
      "lat": 65.38433,
      "lon": 21.5628,
      "grid": "KP05sj",
      "users": 1,
      "usersMax": 2,
      "snr": 25,
      "offline": false,
      "antenna": "Long wire 49:1 unun"
    },
    {
      "id": "e062347c70c5",
      "name": "Bedford UK 0-30 MHz V1 KiwiSDR",
      "host": "remoteradio.changeip.org",
      "port": 8085,
      "loc": "Bedford, England, UK",
      "lat": 52.119754,
      "lon": -0.446486,
      "grid": "IO92sc",
      "users": 0,
      "usersMax": 8,
      "snr": 27,
      "offline": false,
      "antenna": "Various, use Ant switch to choose antenna."
    },
    {
      "id": "1442fc0f6d4a",
      "name": "13RF029📶📻0-30 MHz SDR📻📶 | Bülzig JO61jv",
      "host": "hnswerkstatt.dyndns.org",
      "port": 8073,
      "loc": "Bülzig JO61jv",
      "lat": 51.89,
      "lon": 12.76,
      "grid": "JO61jv",
      "users": 0,
      "usersMax": 8,
      "snr": 27,
      "offline": false,
      "antenna": "34,7m long wire 1:9 unun & 10m wire 1:49unun (Dir:208.85° N/S)"
    },
    {
      "id": "780473832535",
      "name": "0-30 MHz SDR, DL/JO43UG, Tostedt, northern Germany",
      "host": "nordheide2.proxy.kiwisdr.com",
      "port": 80,
      "loc": "Tostedt, Germany",
      "lat": 53.29,
      "lon": 9.74,
      "grid": "JO43ug",
      "users": 1,
      "usersMax": 8,
      "snr": 27,
      "offline": false,
      "antenna": "various"
    },
    {
      "id": "3484e400394b",
      "name": "Zuerich",
      "host": "80.218.128.11",
      "port": 8073,
      "loc": "Zuerich Friesenberg",
      "lat": 47.35818,
      "lon": 8.49391,
      "grid": "JN47fi",
      "users": 0,
      "usersMax": 8,
      "snr": 23,
      "offline": false,
      "antenna": "Gainmaster1/2 T"
    },
    {
      "id": "b8804f25a162",
      "name": "DF4OR - Herxheim, KiwiSDR 0-30 MHz",
      "host": "df4or.ddns.net",
      "port": 8073,
      "loc": "Herxheim Germany",
      "lat": 49.142333,
      "lon": 8.222333,
      "grid": "JN49cd",
      "users": 0,
      "usersMax": 3,
      "snr": 25,
      "offline": false,
      "antenna": "Wellbrook ALA-1530S"
    },
    {
      "id": "c4f31281ccbf",
      "name": "2-30MHZ SDR #1, VK5ARG Remote Receiver Site | Near Tarlee, South Australia",
      "host": "kiwisdr.areg.org.au",
      "port": 8073,
      "loc": "Near Tarlee, South Australia",
      "lat": -34.2737,
      "lon": 138.771,
      "grid": "PF95JR",
      "users": 3,
      "usersMax": 8,
      "snr": 26,
      "offline": false,
      "antenna": "Broadband Monopole (\"J-Dart\")"
    },
    {
      "id": "985dad7f7a85",
      "name": "20 kHz - 30 MHz Roelof Bakker , pa0rdt [ACTIVE!] | Middelburg, Netherlands",
      "host": "62.45.55.124",
      "port": 8073,
      "loc": "Middelburg, Netherlands",
      "lat": 51.5005,
      "lon": 3.60069,
      "grid": "JO11tm",
      "users": 6,
      "usersMax": 8,
      "snr": 28,
      "offline": false,
      "antenna": "pa0rdt-Mini-Whip© 5 meter up in a hawthorn tree"
    },
    {
      "id": "f82e0c014dcc",
      "name": "Banana Port, SDR RX 0...30 MHz | Asikkala, Finland",
      "host": "21612.proxy.kiwisdr.com",
      "port": 80,
      "loc": "Asikkala, Finland",
      "lat": 61.31502,
      "lon": 25.586264,
      "grid": "KP21TH",
      "users": 0,
      "usersMax": 3,
      "snr": 25,
      "offline": false,
      "antenna": "G5RV Multiband Dipole"
    },
    {
      "id": "c4f312ba0a00",
      "name": "G8GPO | ampthill",
      "host": "g8gporx.proxy.kiwisdr.com",
      "port": 80,
      "loc": "ampthill",
      "lat": 52.00263,
      "lon": -0.49325,
      "grid": "io92sa",
      "users": 0,
      "usersMax": 8,
      "snr": 27,
      "offline": false,
      "antenna": "loop"
    },
    {
      "id": "647060cb22e1",
      "name": "0-30 MHz SDR | Lincoln, United Kingdom.",
      "host": "22789.proxy.kiwisdr.com",
      "port": 80,
      "loc": "Lincoln, United Kingdom.",
      "lat": 53.23,
      "lon": -0.51,
      "grid": "IO93rf",
      "users": 0,
      "usersMax": 8,
      "snr": 28,
      "offline": false,
      "antenna": "30m EFHW (9:1 unun)"
    },
    {
      "id": "0035ff8db7b9",
      "name": "0-30 MHz SDR | Coimbra, Portugal",
      "host": "joaofonseca.proxy.kiwisdr.com",
      "port": 80,
      "loc": "Coimbra, Portugal",
      "lat": 40.211925,
      "lon": -8.426599,
      "grid": "IN50sf",
      "users": 0,
      "usersMax": 8,
      "snr": 24,
      "offline": false,
      "antenna": "Various Antennas. Default Antenna: T2FD"
    },
    {
      "id": "0804b49ffea0",
      "name": "Bedford UK 0-30 MHz V2 KiwiSDR",
      "host": "remoteradio.changeip.org",
      "port": 8086,
      "loc": "Bedford, England, UK",
      "lat": 52.12,
      "lon": -0.45,
      "grid": "IO92sc",
      "users": 0,
      "usersMax": 3,
      "snr": 26,
      "offline": false,
      "antenna": "Various, use Ant switch to choose antenna."
    },
    {
      "id": "f82e0c014877",
      "name": "0-30 MHz SDR | Sulz am Neckar, Deutschland",
      "host": "21624.proxy.kiwisdr.com",
      "port": 80,
      "loc": "Sulz am Neckar, Deutschland",
      "lat": 48.369408,
      "lon": 8.655167,
      "grid": "JN48ig",
      "users": 0,
      "usersMax": 8,
      "snr": 24,
      "offline": false,
      "antenna": "Sirio Blizzard; Endfed 40m; Dummy Load"
    },
    {
      "id": "0035ff9bab94",
      "name": "0 - 30 MHz SDR | 🇮🇪 🇮🇪 🇮🇪 🇮🇪 URL: http://rx3.radio101.de 🇮🇪 🇮🇪 🇮🇪 🇮🇪 Glenbeigh, Kerry / Ireland",
      "host": "185.11.65.87",
      "port": 8073,
      "loc": "🇮🇪 🇮🇪 🇮🇪 🇮🇪 URL: http://rx3.radio101.de 🇮🇪 🇮🇪 🇮🇪 🇮🇪 Glenbeigh, Kerry / Ireland",
      "lat": 52.054106,
      "lon": -9.977646,
      "grid": "IO52ab",
      "users": 1,
      "usersMax": 4,
      "snr": 24,
      "offline": false,
      "antenna": "Groundplane"
    },
    {
      "id": "b894d9066e2e",
      "name": "0-30 MHz SDR | HS0ZGZ, Udon Thani, Thailand 🇹🇭",
      "host": "21023.proxy.kiwisdr.com",
      "port": 80,
      "loc": "HS0ZGZ, Udon Thani, Thailand 🇹🇭",
      "lat": 16.972,
      "lon": 103.262,
      "grid": "OK16px",
      "users": 1,
      "usersMax": 8,
      "snr": 32,
      "offline": false,
      "antenna": "1m diameter loop with Cross Country loop amplifier"
    },
    {
      "id": "40bd32e5401e",
      "name": "0-30 MHz SDR, WD3C | Fair Hill, Maryland",
      "host": "wd3c.ddns.net",
      "port": 8073,
      "loc": "Fair Hill, Maryland",
      "lat": 39.7109,
      "lon": -75.7897,
      "grid": "fm29cr",
      "users": 1,
      "usersMax": 4,
      "snr": 27,
      "offline": false,
      "antenna": "Wellbrook Loop or OCFD Dipole"
    },
    {
      "id": "74a58cff9c3f",
      "name": "HB9HZW (0-30 MHz KiwiSDR-2) Valais - Switzerland",
      "host": "kiwisdr.hb9hzw.ch",
      "port": 80,
      "loc": "Ayent, Switzerland",
      "lat": 46.272787,
      "lon": 7.396844,
      "grid": "JN36qg",
      "users": 0,
      "usersMax": 3,
      "snr": 23,
      "offline": false,
      "antenna": "Fritzel FD-4 dipôle 80, 40, 20, 12, 10m"
    },
    {
      "id": "883f4aa8e0aa",
      "name": "0-30 MHz SDR, DL7APJ, Germany, Teltow",
      "host": "meinsdr.ddns.net",
      "port": 8073,
      "loc": "Teltow, Germany",
      "lat": 52.39,
      "lon": 13.29,
      "grid": "JO62pj",
      "users": 2,
      "usersMax": 8,
      "snr": 25,
      "offline": false,
      "antenna": "Sloper 20m long, 12m high, direction from north to south"
    },
    {
      "id": "0035ff9cf663",
      "name": "🌲46º North #1 ~ K9DXI, Presque Isle, Wisconsin | USA🌲",
      "host": "k9dxikiwi.proxy.kiwisdr.com",
      "port": 80,
      "loc": "Presque Isle, WI USA",
      "lat": 46.229947,
      "lon": -89.595361,
      "grid": "EN56ef",
      "users": 4,
      "usersMax": 8,
      "snr": 23,
      "offline": false,
      "antenna": "85 Meter Loop > 500 - 1500 kHz Filter > MCA104M Split"
    },
    {
      "id": "f82e0c13d6f2",
      "name": "DL2TT | Essen, Germany",
      "host": "t.ben2.de",
      "port": 8073,
      "loc": "Essen, Germany",
      "lat": 51.47,
      "lon": 6.93,
      "grid": "JO31LL",
      "users": 0,
      "usersMax": 8,
      "snr": 25,
      "offline": false,
      "antenna": "EFHW 41m Long / Endfeed Antenna"
    },
    {
      "id": "28ec9af08db6",
      "name": "10-30MHz SDR, KD2OM | Victor, New York",
      "host": "www.ecsykes.com",
      "port": 8073,
      "loc": "Victor, New York",
      "lat": 42.968572,
      "lon": -77.426535,
      "grid": "FN12gx",
      "users": 3,
      "usersMax": 4,
      "snr": 30,
      "offline": false,
      "antenna": "350 Foot Beverage"
    },
    {
      "id": "b83df630c79e",
      "name": "0-30 MHz SDR | Kitchener, Ontario",
      "host": "22687.proxy.kiwisdr.com",
      "port": 80,
      "loc": "Kitchener, Ontario",
      "lat": 43.403945,
      "lon": -80.44038,
      "grid": "EN93sj",
      "users": 0,
      "usersMax": 8,
      "snr": 26,
      "offline": false,
      "antenna": "80m Doublet - AM Broadcast band filtered"
    },
    {
      "id": "c4f312a678db",
      "name": "0-30 MHz SDR, VE3HOA | Ottawa, Canada",
      "host": "ve3hoa.ddns.net",
      "port": 8073,
      "loc": "Ottawa, Canada",
      "lat": 45.27,
      "lon": -76.05,
      "grid": "FN15",
      "users": 2,
      "usersMax": 8,
      "snr": 29,
      "offline": false,
      "antenna": "160 meter Beverage"
    },
    {
      "id": "402e71d15462",
      "name": "0-30 MHz SDR(Redirect to the next receiver when full.) | Oita,Japan",
      "host": "kiwi.web-sdr.net",
      "port": 80,
      "loc": "Oita,Japan",
      "lat": 33.5549,
      "lon": 131.3159,
      "grid": "PM53pn",
      "users": 4,
      "usersMax": 7,
      "snr": 25,
      "offline": false,
      "antenna": "self-made YouLoop + LAMB-1B"
    },
    {
      "id": "985dad8185ae",
      "name": "HB9VQQ, Wellgood copper tube Loop ø 1m | Hinwil,Switzerland",
      "host": "kiwi.hb9vqq.ch",
      "port": 8075,
      "loc": "Hinwil,Switzerland",
      "lat": 47.30574,
      "lon": 8.848046,
      "grid": "JN47kh",
      "users": 0,
      "usersMax": 8,
      "snr": 23,
      "offline": false,
      "antenna": "Wellgood Loop - 22mm Copper tube Loop ø 1m"
    },
    {
      "id": "0cb2b7d6cd86",
      "name": "0-32 MHz KiwiSDR, PE1NOD. | High Tech Campus Eindhoven, The Netherlands.",
      "host": "83.247.88.41",
      "port": 8073,
      "loc": "High Tech Campus Eindhoven, The Netherlands.",
      "lat": 51.413155,
      "lon": 5.459469,
      "grid": "JO21rk",
      "users": 0,
      "usersMax": 8,
      "snr": 27,
      "offline": false,
      "antenna": "Active Rod Antenna"
    },
    {
      "id": "985dadd0af03",
      "name": "0-30 MHz SDR | DL3ZID Schwerin",
      "host": "84.141.169.56",
      "port": 8073,
      "loc": "DL3ZID Schwerin",
      "lat": 53.599,
      "lon": 11.329,
      "grid": "JO53PO",
      "users": 0,
      "usersMax": 4,
      "snr": 27,
      "offline": false,
      "antenna": "E-Field"
    },
    {
      "id": "147f0fdf7f17",
      "name": "0.5-30 MHz SDR, W4KEL, Free Union, Virginia, USA",
      "host": "71.219.21.226",
      "port": 8073,
      "loc": "Free Union, VA, USA",
      "lat": 38.150151,
      "lon": -78.554212,
      "grid": "FM08rd",
      "users": 2,
      "usersMax": 4,
      "snr": 23,
      "offline": false,
      "antenna": "27.4M T2FD abt 20M over ground"
    },
    {
      "id": "6433db2fbb1d",
      "name": "Barßel / Lower Saxony / Germany / 0-30 MHz SDR",
      "host": "barsselsdr.ddns.net",
      "port": 8073,
      "loc": "Barßel, Germany",
      "lat": 53.168722,
      "lon": 7.737611,
      "grid": "JO33UD",
      "users": 0,
      "usersMax": 8,
      "snr": 23,
      "offline": false,
      "antenna": "Diamond D3000-N / Discone Antenna"
    },
    {
      "id": "e415f6f7446f",
      "name": "N1NTE-4 - MA/CT Border, USA",
      "host": "sigmasdr.ddns.net",
      "port": 8076,
      "loc": "Holland, MA",
      "lat": 42.033943,
      "lon": -72.140461,
      "grid": "FN32",
      "users": 2,
      "usersMax": 8,
      "snr": 25,
      "offline": false,
      "antenna": "80-10m OCF Dipole @ 65'/20m multiplexed to 32 user channels"
    },
    {
      "id": "40bd32c8d84c",
      "name": "0-30 MHz SDR, W1NT 》Newton, New Hampshire, NH USA",
      "host": "24.218.56.55",
      "port": 8073,
      "loc": "Newton, NH USA",
      "lat": 42.867236,
      "lon": -71.003845,
      "grid": "FN42LU",
      "users": 0,
      "usersMax": 3,
      "snr": 23,
      "offline": false,
      "antenna": "500' NE Beverage primary- may change with local operating"
    },
    {
      "id": "3484e4006a5c",
      "name": "0-30 MHz KiwiSDR | DO6LSM | Borgwedel, Germany",
      "host": "do6lsm.ddns.net",
      "port": 8074,
      "loc": "Borgwedel, Germany",
      "lat": 54.502,
      "lon": 9.6637,
      "grid": "JO44tm",
      "users": 0,
      "usersMax": 3,
      "snr": 26,
      "offline": false,
      "antenna": "WellGood Loop V4.1"
    },
    {
      "id": "b0d5cc5728c1",
      "name": "0-30 MHz SDR, France (Belgium border)",
      "host": "sdr.mimosys.net",
      "port": 8074,
      "loc": "Lille, France",
      "lat": 50.596914,
      "lon": 3.082035,
      "grid": "JO10mo",
      "users": 0,
      "usersMax": 4,
      "snr": 24,
      "offline": false,
      "antenna": "Wellbrook Loop in the attic"
    },
    {
      "id": "0035ff9dc4ac",
      "name": "M0CKE's KiwiSDR- QTH Spalding - Antenna Wellgood Active LDF450 Loop",
      "host": "m0cke.proxy.kiwisdr.com",
      "port": 80,
      "loc": "Spalding, UK",
      "lat": 52.852632,
      "lon": -0.194981,
      "grid": "IO92VU",
      "users": 1,
      "usersMax": 8,
      "snr": 24,
      "offline": false,
      "antenna": "1m LDF450 Active Wellgood Loop @ 2m AGL"
    },
    {
      "id": "c4f312a0873f",
      "name": "0-30 MHz SDR, G8AOE | Yarm, NorthEast England",
      "host": "planet3.dyndns.org",
      "port": 8073,
      "loc": "Yarm, NorthEast England",
      "lat": 54.51,
      "lon": -1.33,
      "grid": "IO94IM",
      "users": 6,
      "usersMax": 7,
      "snr": 26,
      "offline": false,
      "antenna": "Mini-Whip"
    },
    {
      "id": "3414b5664491",
      "name": "0.5-30 MHz SDR, W4KEL, Free Union, Virginia, USA",
      "host": "21748.proxy.kiwisdr.com",
      "port": 80,
      "loc": "Free Union, VA, USA",
      "lat": 38.150151,
      "lon": -78.554212,
      "grid": "FM08rd",
      "users": 2,
      "usersMax": 4,
      "snr": 23,
      "offline": false,
      "antenna": "27.4M T2FD abt 20M over ground"
    },
    {
      "id": "b0d5cc5711ca",
      "name": "0,5-30 MHz SDR, Bad Münstereifel",
      "host": "5.10.166.25",
      "port": 8073,
      "loc": "Eifel, Germany",
      "lat": 50.612055,
      "lon": 6.822181,
      "grid": "JO30jo",
      "users": 1,
      "usersMax": 8,
      "snr": 22,
      "offline": false,
      "antenna": "MLA 30"
    },
    {
      "id": "6433db391ce6",
      "name": "0-30 MHz KiwiSDR • Bonito Megaloop FX • aprs.fi, Kuopio, Finland, Europe",
      "host": "kiwi-kuo.aprs.fi",
      "port": 8073,
      "loc": "Kuopio, Finland",
      "lat": 63.075,
      "lon": 27.275,
      "grid": "KP33pb",
      "users": 2,
      "usersMax": 8,
      "snr": 23,
      "offline": false,
      "antenna": "Bonito Megaloop FX"
    },
    {
      "id": "985dad38006d",
      "name": "0-30 MHz SDR#1, LA2G, Norway",
      "host": "la2g.ddns.net",
      "port": 8072,
      "loc": "Jessheim, Norway",
      "lat": 60.14741,
      "lon": 11.14604,
      "grid": "JP50ra",
      "users": 4,
      "usersMax": 8,
      "snr": 24,
      "offline": false,
      "antenna": "Bonito MegaLoop FX"
    },
    {
      "id": "1442fc0f69f6",
      "name": "███ 0-30 MHz SDR #1, VK5PH, Ironstone Range, South Australia ███",
      "host": "sdr.ironstonerange.com",
      "port": 8073,
      "loc": "Ironstone Range, South Australia",
      "lat": -34.964437,
      "lon": 138.76238,
      "grid": "PF95ja",
      "users": 3,
      "usersMax": 8,
      "snr": 27,
      "offline": false,
      "antenna": "12m Duoconical Antenna"
    },
    {
      "id": "40bd32c8d280",
      "name": "0-30 MHz KIWIsdr SP1EXB | Stare Wierzchowo, POLAND",
      "host": "87.251.229.127",
      "port": 8073,
      "loc": "Stare Wierzchowo, POLAND",
      "lat": 53.85,
      "lon": 16.68,
      "grid": "JO83iu",
      "users": 4,
      "usersMax": 8,
      "snr": 23,
      "offline": false,
      "antenna": "GP"
    },
    {
      "id": "1442fc0c8dc9",
      "name": "0-30 MHz SDR | Whitstable, UK",
      "host": "177.ham-radio-op.net",
      "port": 8073,
      "loc": "Whitstable, UK",
      "lat": 51.355177,
      "lon": 1.017452,
      "grid": "JO01mi",
      "users": 3,
      "usersMax": 8,
      "snr": 25,
      "offline": false,
      "antenna": "5m circumference active magnetic loop"
    },
    {
      "id": "f82e0c018380",
      "name": "15 kHz-30 MHz KiwiSDR2 - F1JEK/P - France - DX-500 active antenna.",
      "host": "f1jeksdr1.ddns.net",
      "port": 8073,
      "loc": "Massignac, France",
      "lat": 45.79,
      "lon": 0.65,
      "grid": "JN05hs",
      "users": 1,
      "usersMax": 4,
      "snr": 28,
      "offline": false,
      "antenna": "DX-500 active"
    },
    {
      "id": "147f0fdf7a94",
      "name": "Hofmann's SDR 2 | Thamsbrück, Germany",
      "host": "21918.proxy.kiwisdr.com",
      "port": 80,
      "loc": "Thamsbrück, Germany",
      "lat": 51.140043,
      "lon": 10.638391,
      "grid": "JO51hd",
      "users": 0,
      "usersMax": 2,
      "snr": 23,
      "offline": false,
      "antenna": "Long Wire Antenna"
    },
    {
      "id": "f82e0c0183ae",
      "name": "NL12894 KiwiSDR Delfzijl Netherlands with PA0FRI shielded activeloop",
      "host": "21671.proxy.kiwisdr.com",
      "port": 80,
      "loc": "Delfzijl, Nederland",
      "lat": 53.318674,
      "lon": 6.896373,
      "grid": "jo33kh",
      "users": 0,
      "usersMax": 8,
      "snr": 23,
      "offline": false,
      "antenna": "Loop Antenne"
    },
    {
      "id": "40bd32e4cc11",
      "name": "0-30 MHz SDR, Balingen, Germany",
      "host": "sdr.sixvpn.net",
      "port": 80,
      "loc": "Balingen, Germany",
      "lat": 48.255,
      "lon": 8.83,
      "grid": "JN48kg",
      "users": 1,
      "usersMax": 8,
      "snr": 21,
      "offline": false,
      "antenna": "Indoor Active Loops"
    },
    {
      "id": "f82e0c136831",
      "name": "VP9NI KiwiSDR | Smiths Parish, Bermuda",
      "host": "21778.proxy.kiwisdr.com",
      "port": 80,
      "loc": "Smiths Parish, Bermuda",
      "lat": 32.31,
      "lon": -64.75,
      "grid": "FM72ph",
      "users": 2,
      "usersMax": 3,
      "snr": 21,
      "offline": false,
      "antenna": "20M delta loop for quieter RX on MW and other bands"
    },
    {
      "id": "58a15ffb4de0",
      "name": "0-30 MHz SDR | Großkarolinenfeld, Germany",
      "host": "kiwisdr.dl0fhr.de",
      "port": 8080,
      "loc": "Großkarolinenfeld, Germany",
      "lat": 47.886712,
      "lon": 12.084473,
      "grid": "JN67av",
      "users": 0,
      "usersMax": 8,
      "snr": 21,
      "offline": false,
      "antenna": "MLA Loop / 10m Long Wire"
    },
    {
      "id": "40bd32c8d2a3",
      "name": "W4GUZ .5-30 MHz SDR Bakersville, North Carolina",
      "host": "ssi.proxy.kiwisdr.com",
      "port": 80,
      "loc": "Bakersville, NC, USA",
      "lat": 36.02734,
      "lon": -82.12578,
      "grid": null,
      "users": 1,
      "usersMax": 1,
      "snr": 28,
      "offline": false,
      "antenna": "80-40-20m Fan dipole"
    },
    {
      "id": "0804b4a008b5",
      "name": "IK1YRA Public HF Kiwisdr2 Multi Mode Rx | Near Viverone Lake, Italy",
      "host": "21262.proxy.kiwisdr.com",
      "port": 80,
      "loc": "Near Viverone Lake, Italy",
      "lat": 45.43,
      "lon": 8.06,
      "grid": "JN45ak",
      "users": 0,
      "usersMax": 3,
      "snr": 26,
      "offline": false,
      "antenna": "ANTENNA: 60 meters LW but when I'm using my TX the rx antenna is"
    },
    {
      "id": "1442fc0f60ab",
      "name": "0-30 MHz KiwiSDR 🇮🇪 IK7FMO, RICCARDO GIULIANI & GIUSEPPE CISTERNINO | CONVERSANO (BARI) - CENTRAL PUGLIA - ITALIA - ITALY ***O***",
      "host": "ik7fmo.ddns.net",
      "port": 8073,
      "loc": "CONVERSANO (BARI) - CENTRAL PUGLIA - ITALIA - ITALY ***O***",
      "lat": 40.97,
      "lon": 17.12,
      "grid": "JN80nx",
      "users": 0,
      "usersMax": 5,
      "snr": 23,
      "offline": false,
      "antenna": "Vertical CB Dipole"
    },
    {
      "id": "1442fc0f6654",
      "name": "0-30 MHz SDR, PI4AMF, Arkemheense Polder (Nijkerk GLD), Netherlands",
      "host": "62.45.81.168",
      "port": 8073,
      "loc": "Polder Arkemheen (Nijkerk, GLD), Netherlands",
      "lat": 52.240202,
      "lon": 5.429781,
      "grid": "JO22qf",
      "users": 0,
      "usersMax": 3,
      "snr": 21,
      "offline": false,
      "antenna": "Active Loop Antenna"
    },
    {
      "id": "e415f6f748da",
      "name": "0-30 MHz SDR, DE1LON | Meerbusch, Germany",
      "host": "df1lon.synology.me",
      "port": 8073,
      "loc": "Meerbusch, Germany",
      "lat": 51.14,
      "lon": 6.7,
      "grid": "JO31HG",
      "users": 0,
      "usersMax": 8,
      "snr": 22,
      "offline": false,
      "antenna": "ALA-1530"
    },
    {
      "id": "1442fc0f609c",
      "name": "███ 0-30 MHz SDR #2, VK5PH, Ironstone Range, South Australia ███",
      "host": "sdr.ironstonerange.com",
      "port": 8074,
      "loc": "Ironstone Range, South Australia",
      "lat": -34.964437,
      "lon": 138.76238,
      "grid": "PF95ja",
      "users": 1,
      "usersMax": 8,
      "snr": 29,
      "offline": false,
      "antenna": "12m Duoconical Monopole Antenna"
    },
    {
      "id": "f82e0c0e9ffa",
      "name": "0-30 MHz SDR | Luisenfelde, Germany",
      "host": "21692.proxy.kiwisdr.com",
      "port": 80,
      "loc": "Luisenfelde, Germany",
      "lat": 52.975968,
      "lon": 13.916525,
      "grid": "JO62wx",
      "users": 1,
      "usersMax": 4,
      "snr": 22,
      "offline": false,
      "antenna": "MegaLoop FX 8m"
    },
    {
      "id": "e062346fdb3f",
      "name": "DO4GME | Winzeln",
      "host": "80.146.16.190",
      "port": 8073,
      "loc": "Winzeln",
      "lat": 48.286144,
      "lon": 8.484115,
      "grid": "Jn48fg",
      "users": 0,
      "usersMax": 8,
      "snr": 23,
      "offline": false,
      "antenna": "COMTEX BB-8V Groundplane (5,4m Vertikal)"
    },
    {
      "id": "98f07b1ff3ae",
      "name": "0-30 MHz SDR | K8BMZ | Traverse City, MI",
      "host": "kiwi.k8bmz.net",
      "port": 8073,
      "loc": "Traverse City, MI",
      "lat": 44.728754,
      "lon": -85.509181,
      "grid": "EN74",
      "users": 5,
      "usersMax": 8,
      "snr": 22,
      "offline": false,
      "antenna": "DAMAGED IN WIND! ZS6BKW Inverted V - 45' AGL Apex - AM broadcast"
    },
    {
      "id": "40bd32c8d2d0",
      "name": "0-30 MHz SDR | Albertirsa, Hungary",
      "host": "kiwiradio.ddns.net",
      "port": 80,
      "loc": "Albertirsa, Hungary",
      "lat": 47.240035,
      "lon": 19.611112,
      "grid": "JN97tf",
      "users": 0,
      "usersMax": 8,
      "snr": 24,
      "offline": false,
      "antenna": "Long wire antenna"
    },
    {
      "id": "c0d60a806e73",
      "name": "0-30 MHz SDR | Nailsea, Bristol",
      "host": "g4ahg.ddns.net",
      "port": 8073,
      "loc": "Nailsea, Bristol",
      "lat": 51.421651,
      "lon": -2.753674,
      "grid": "io81ok",
      "users": 3,
      "usersMax": 8,
      "snr": 21,
      "offline": false,
      "antenna": "Fan Dipole for 40m/20m"
    },
    {
      "id": "e062346feb1d",
      "name": "OM5AKC, Marian Nemčič, 0-30 MHz SDR | Nitra",
      "host": "62.197.223.84",
      "port": 8073,
      "loc": "Nitra",
      "lat": 48.328202,
      "lon": 18.099342,
      "grid": "JN98bh",
      "users": 0,
      "usersMax": 8,
      "snr": 21,
      "offline": false,
      "antenna": "LW"
    },
    {
      "id": "00aafd2d3947",
      "name": "0-30 MHz SDR | OZ5OD Hoell Strand. Denmak",
      "host": "22902.proxy.kiwisdr.com",
      "port": 80,
      "loc": "OZ5OD Hoell Strand. Denmak",
      "lat": 55.636708,
      "lon": 9.737335,
      "grid": "JO45up",
      "users": 0,
      "usersMax": 7,
      "snr": 26,
      "offline": false,
      "antenna": "Mini-Whip / 45,1m invertet L"
    },
    {
      "id": "6433db3ad4b7",
      "name": "0-30 MHz SDR, M7GMG | Manchester, UK",
      "host": "radio.satelliteboy.com",
      "port": 8073,
      "loc": "Manchester, UK",
      "lat": 53.43,
      "lon": -2.18,
      "grid": "IO83vk",
      "users": 2,
      "usersMax": 2,
      "snr": 22,
      "offline": false,
      "antenna": "Wellbrook Loop"
    },
    {
      "id": "b4ac9dfb84fd",
      "name": "HZ1SF | Riyadh, Saudi Arabia",
      "host": "21472.proxy.kiwisdr.com",
      "port": 80,
      "loc": "Riyadh, Saudi Arabia",
      "lat": 24.722121,
      "lon": 46.724339,
      "grid": "LL34",
      "users": 0,
      "usersMax": 8,
      "snr": 22,
      "offline": false,
      "antenna": "W6LVP"
    },
    {
      "id": "985dad48d60d",
      "name": "0-30 MHz SDR, DAB956, Cottbus, Germany",
      "host": "dab956kiwi.proxy.kiwisdr.com",
      "port": 80,
      "loc": "Cottbus, Germany",
      "lat": 51.734027,
      "lon": 14.332997,
      "grid": "Jo71dr",
      "users": 0,
      "usersMax": 8,
      "snr": 22,
      "offline": false,
      "antenna": "Blizzard2700"
    },
    {
      "id": "3408e159c879",
      "name": "0-30 MHz SDR | New Braunfels, TX",
      "host": "newbraunfels.proxy.kiwisdr.com",
      "port": 80,
      "loc": "New Braunfels, TX",
      "lat": 29.67,
      "lon": -98.12,
      "grid": "EL09wq",
      "users": 3,
      "usersMax": 3,
      "snr": 30,
      "offline": false,
      "antenna": "Loop On Ground"
    },
    {
      "id": "3484e403fabc",
      "name": "MSARS HF KiwiSDR Burgess Hill, West Sussex, UK",
      "host": "msars.ddns.net",
      "port": 8073,
      "loc": "Burgess Hill, West Sussex, UK",
      "lat": 50.95655,
      "lon": -0.12917,
      "grid": "IO90ww",
      "users": 0,
      "usersMax": 8,
      "snr": 26,
      "offline": false,
      "antenna": "Wellbrook Loop ALA1530AL"
    },
    {
      "id": "6433db5a7d93",
      "name": "Milano Sdr",
      "host": "milano1602.dyndns.org",
      "port": 8073,
      "loc": "Milano, Italy",
      "lat": 45.480424,
      "lon": 9.186175,
      "grid": "JN45ol",
      "users": 0,
      "usersMax": 8,
      "snr": 24,
      "offline": false,
      "antenna": "Ala1530"
    },
    {
      "id": "9006f2603cdb",
      "name": "DM9SC kiwiSDR | Memmingen, Germany",
      "host": "22140.proxy.kiwisdr.com",
      "port": 80,
      "loc": "Memmingen, Germany",
      "lat": 47.984257,
      "lon": 10.158873,
      "grid": "JN57bx",
      "users": 0,
      "usersMax": 3,
      "snr": 27,
      "offline": false,
      "antenna": "Boni-Whip"
    },
    {
      "id": "b83df61e6e3b",
      "name": "N3VLF (formerly KM4SII) KiwiSDR | Clemmons, NC, USA",
      "host": "km4sii.proxy.kiwisdr.com",
      "port": 80,
      "loc": "Clemmons, NC, USA",
      "lat": 36.06,
      "lon": -80.44,
      "grid": "EM96sb",
      "users": 2,
      "usersMax": 8,
      "snr": 22,
      "offline": false,
      "antenna": "40m Dipole"
    },
    {
      "id": "04a316fd98d4",
      "name": "0-30 MHz Loop 95m , HB9EXC, Switzerland",
      "host": "81.13.254.159",
      "port": 8073,
      "loc": "Fully VS, Switzerland",
      "lat": 46.1351,
      "lon": 7.116,
      "grid": "JN36nd",
      "users": 0,
      "usersMax": 8,
      "snr": 22,
      "offline": false,
      "antenna": "Loop 65 m."
    },
    {
      "id": "147f0fdfe32e",
      "name": "G4LVD/SDR | IPSWICH Suffolk UK",
      "host": "21868.proxy.kiwisdr.com",
      "port": 80,
      "loc": "IPSWICH Suffolk UK",
      "lat": 52.03,
      "lon": 1.18,
      "grid": "JO02oa",
      "users": 1,
      "usersMax": 8,
      "snr": 22,
      "offline": false,
      "antenna": "EFHW - Bazooka"
    },
    {
      "id": "5445383c9cc3",
      "name": "███ 0-30 MHz SDR #4, VK5PH, Ironstone Range, South Australia ███",
      "host": "sdr.ironstonerange.com",
      "port": 8076,
      "loc": "Ironstone Range, South Australia",
      "lat": -34.964437,
      "lon": 138.76238,
      "grid": "PF95ja",
      "users": 0,
      "usersMax": 8,
      "snr": 29,
      "offline": false,
      "antenna": "12m Duoconical Monopole Antenna"
    },
    {
      "id": "b894d90098f1",
      "name": "South West Alabama 0-30 MHz SDR",
      "host": "21141.proxy.kiwisdr.com",
      "port": 80,
      "loc": "Alabama",
      "lat": 32.1,
      "lon": -88.2,
      "grid": "EM52",
      "users": 0,
      "usersMax": 8,
      "snr": 23,
      "offline": false,
      "antenna": "100 foot LOG (Loop on Ground)"
    },
    {
      "id": "f82e0c01aff7",
      "name": "0-30 MHZ 🇩🇪 🇩🇪 SWLJO53DK 🇩🇪 🇩🇪 Voßmoor OT von Escheburg 🇩🇪 🇩🇪 Germany",
      "host": "21951.proxy.kiwisdr.com",
      "port": 80,
      "loc": "Escheburg",
      "lat": 53.45089,
      "lon": 10.309789,
      "grid": "JO53dk",
      "users": 0,
      "usersMax": 2,
      "snr": 22,
      "offline": false,
      "antenna": "♦︎ AOR SA-7000 ♦︎"
    },